{
"type": "FeatureCollection",
"name": "Kyoto_Restaurant_Info",
"crs": { "type": "name", "properties": { "name": "urn:ogc:def:crs:OGC:1.3:CRS84" } },
"features": [
{ "type": "Feature", "properties": { "Name": "Orudeidainingurajou  ", "JapaneseName": "オールデイダイニング　ラジョウ", "Station": "Kyoto", "FirstCategory": "Buffet style", "SecondCategory": "Cafe", "DinnerPrice": "￥4000～￥4999", "LunchPrice": "￥2000～￥2999", "TotalRating": "3.39", "DinnerRating": "3.2", "LunchRating": "3.38", "ReviewNum": "56", "Latitude": 34.986175148310799, "Longitude": 135.761313932311 }, "geometry": { "type": "Point", "coordinates": [ 135.761313932310998, 34.986175148310799 ] } },
{ "type": "Feature", "properties": { "Name": "Steak Frites Gaspard zinzin  ", "JapaneseName": "ステックフリット ガスパール ザンザン", "Station": "Karasuma", "FirstCategory": "Bistro", "SecondCategory": "Steak", "DinnerPrice": "￥3000～￥3999", "LunchPrice": "￥1000～￥1999", "TotalRating": "3.18", "DinnerRating": "3.06", "LunchRating": "3.33", "ReviewNum": "70", "Latitude": 35.005825798789601, "Longitude": 135.75985675968801 }, "geometry": { "type": "Point", "coordinates": [ 135.759856759688006, 35.005825798789601 ] } },
{ "type": "Feature", "properties": { "Name": "KAZUMA  ", "JapaneseName": "和馬", "Station": "Sanjo", "FirstCategory": "Izakaya (Tavern)", "SecondCategory": "Japanese food (other)", "DinnerPrice": "￥3000～￥3999", "LunchPrice": "NA", "TotalRating": "3.28", "DinnerRating": "3.28", "LunchRating": "NA", "ReviewNum": "7", "Latitude": 35.006582565996297, "Longitude": 135.77024669529499 }, "geometry": { "type": "Point", "coordinates": [ 135.770246695294986, 35.006582565996297 ] } },
{ "type": "Feature", "properties": { "Name": "okonomiyakiteppanyakimiki  ", "JapaneseName": "お好み焼き 鉄板焼き 三喜", "Station": "Tambaguchi", "FirstCategory": "Okonomiyaki", "SecondCategory": "Izakaya (Tavern)", "DinnerPrice": "￥3000～￥3999", "LunchPrice": "NA", "TotalRating": "3.14", "DinnerRating": "3.14", "LunchRating": "NA", "ReviewNum": "16", "Latitude": 34.995924433173201, "Longitude": 135.74826651146699 }, "geometry": { "type": "Point", "coordinates": [ 135.748266511466994, 34.995924433173201 ] } },
{ "type": "Feature", "properties": { "Name": "Shaofeiyan  ", "JapaneseName": "小肥羊 京都河原町店", "Station": "Kyoto Shiyakusho Mae", "FirstCategory": "Chinese hot pot \/ fire pot", "SecondCategory": "Chinese", "DinnerPrice": "￥4000～￥4999", "LunchPrice": "￥1000～￥1999", "TotalRating": "3.16", "DinnerRating": "3.16", "LunchRating": "3.05", "ReviewNum": "23", "Latitude": 35.007900722620001, "Longitude": 135.76820180443301 }, "geometry": { "type": "Point", "coordinates": [ 135.768201804433005, 35.007900722620001 ] } },
{ "type": "Feature", "properties": { "Name": "okuta-va  ", "JapaneseName": "OCTAVAR", "Station": "Kyoto", "FirstCategory": "Bar", "SecondCategory": "Italian", "DinnerPrice": "￥4000～￥4999", "LunchPrice": "￥1000～￥1999", "TotalRating": "3.08", "DinnerRating": "3", "LunchRating": "3.11", "ReviewNum": "24", "Latitude": 34.983497088244803, "Longitude": 135.76055939605601 }, "geometry": { "type": "Point", "coordinates": [ 135.76055939605601, 34.983497088244803 ] } },
{ "type": "Feature", "properties": { "Name": "Resort dining&bar HaLe  ", "JapaneseName": "Resort dining&bar HaLe 河原町店", "Station": "Sanjo", "FirstCategory": "Italian", "SecondCategory": "Bar", "DinnerPrice": "￥3000～￥3999", "LunchPrice": "￥1000～￥1999", "TotalRating": "3.04", "DinnerRating": "3.05", "LunchRating": "3", "ReviewNum": "22", "Latitude": 35.007194709143697, "Longitude": 135.769468120661 }, "geometry": { "type": "Point", "coordinates": [ 135.769468120661003, 35.007194709143697 ] } },
{ "type": "Feature", "properties": { "Name": "Sumika  ", "JapaneseName": "棲家", "Station": "Kawaramachi", "FirstCategory": "Izakaya (Tavern)", "SecondCategory": "Creative cuisine", "DinnerPrice": "￥3000～￥3999", "LunchPrice": "NA", "TotalRating": "3.34", "DinnerRating": "3.34", "LunchRating": "NA", "ReviewNum": "23", "Latitude": 35.004704086345399, "Longitude": 135.77018211738101 }, "geometry": { "type": "Point", "coordinates": [ 135.770182117381012, 35.004704086345399 ] } },
{ "type": "Feature", "properties": { "Name": "Gayagaya  ", "JapaneseName": "我家我家", "Station": "Sanjo", "FirstCategory": "Izakaya (Tavern)", "SecondCategory": "Bar", "DinnerPrice": "￥3000～￥3999", "LunchPrice": "NA", "TotalRating": "3.03", "DinnerRating": "3.04", "LunchRating": "NA", "ReviewNum": "3", "Latitude": 35.0071741645137, "Longitude": 135.76996780233 }, "geometry": { "type": "Point", "coordinates": [ 135.769967802330001, 35.0071741645137 ] } },
{ "type": "Feature", "properties": { "Name": "Ishibekoujimamecha  ", "JapaneseName": "石塀小路 豆ちゃ 京都", "Station": "Gion Shijo", "FirstCategory": "Izakaya (Tavern)", "SecondCategory": "Kyoto Cuisine", "DinnerPrice": "￥4000～￥4999", "LunchPrice": "NA", "TotalRating": "3.56", "DinnerRating": "3.56", "LunchRating": "NA", "ReviewNum": "92", "Latitude": 35.0008130609394, "Longitude": 135.77915538773499 }, "geometry": { "type": "Point", "coordinates": [ 135.779155387734988, 35.0008130609394 ] } },
{ "type": "Feature", "properties": { "Name": "nagoyako-chintokoshitsuizakayatorisai  ", "JapaneseName": "名古屋コーチンと個室居酒屋 鶏彩 河原町店", "Station": "Sanjo", "FirstCategory": "Izakaya (Tavern)", "SecondCategory": "Japanese food (other)", "DinnerPrice": "￥3000～￥3999", "LunchPrice": "NA", "TotalRating": "3.04", "DinnerRating": "3.04", "LunchRating": "NA", "ReviewNum": "4", "Latitude": 35.007395795359898, "Longitude": 135.769274238615 }, "geometry": { "type": "Point", "coordinates": [ 135.769274238614997, 35.007395795359898 ] } },
{ "type": "Feature", "properties": { "Name": "Gionabesu  ", "JapaneseName": "祇園 Abbesses", "Station": "Gion Shijo", "FirstCategory": "French", "SecondCategory": "Italian", "DinnerPrice": "￥8000～￥9999", "LunchPrice": "￥6000～￥7999", "TotalRating": "3.58", "DinnerRating": "3.54", "LunchRating": "3.56", "ReviewNum": "120", "Latitude": 35.001953696563902, "Longitude": 135.77482125072299 }, "geometry": { "type": "Point", "coordinates": [ 135.774821250722994, 35.001953696563902 ] } },
{ "type": "Feature", "properties": { "Name": "nishikimachinoakarishoutengai  ", "JapaneseName": "錦 街の灯り商店街", "Station": "Karasuma", "FirstCategory": "Izakaya (Tavern)", "SecondCategory": "Bar", "DinnerPrice": "￥2000～￥2999", "LunchPrice": "￥2000～￥2999", "TotalRating": "3", "DinnerRating": "3", "LunchRating": "NA", "ReviewNum": "2", "Latitude": 35.005163128914802, "Longitude": 135.76197633639001 }, "geometry": { "type": "Point", "coordinates": [ 135.761976336390006, 35.005163128914802 ] } },
{ "type": "Feature", "properties": { "Name": "gionni-yongo  ", "JapaneseName": "祗園245", "Station": "Sanjo Keihan", "FirstCategory": "Italian", "SecondCategory": "French", "DinnerPrice": "￥10000～￥14999", "LunchPrice": "￥6000～￥7999", "TotalRating": "3.85", "DinnerRating": "3.83", "LunchRating": "3.75", "ReviewNum": "39", "Latitude": 35.006301023347099, "Longitude": 135.77562265067499 }, "geometry": { "type": "Point", "coordinates": [ 135.77562265067499, 35.006301023347099 ] } },
{ "type": "Feature", "properties": { "Name": "Mumon  ", "JapaneseName": "無門 三条室町店", "Station": "Karasuma Oike", "FirstCategory": "Shabu Shabu (Japanese Steamboat)", "SecondCategory": "Fugu (Blowfish)", "DinnerPrice": "￥5000～￥5999", "LunchPrice": " ～￥999", "TotalRating": "3.05", "DinnerRating": "3.05", "LunchRating": "NA", "ReviewNum": "13", "Latitude": 35.009334832597503, "Longitude": 135.757835377113 }, "geometry": { "type": "Point", "coordinates": [ 135.757835377112997, 35.009334832597503 ] } },
{ "type": "Feature", "properties": { "Name": "itariandainingutoreotto  ", "JapaneseName": "イタリアンダイニングTREOTTO 西院店", "Station": "Saiin", "FirstCategory": "Italian", "SecondCategory": "Dining bar", "DinnerPrice": "￥3000～￥3999", "LunchPrice": "NA", "TotalRating": "3.04", "DinnerRating": "3.04", "LunchRating": "3.03", "ReviewNum": "2", "Latitude": 35.003728579070199, "Longitude": 135.73125506494901 }, "geometry": { "type": "Point", "coordinates": [ 135.731255064949011, 35.003728579070199 ] } },
{ "type": "Feature", "properties": { "Name": "Sukiyakisunibiizakayahokuto  ", "JapaneseName": "すき焼き炭火居酒屋 北斗", "Station": "Kyoto", "FirstCategory": "Sukiyaki", "SecondCategory": "Yakitori (Grilled chicken)", "DinnerPrice": "￥3000～￥3999", "LunchPrice": "NA", "TotalRating": "3.09", "DinnerRating": "3.1", "LunchRating": "NA", "ReviewNum": "19", "Latitude": 34.989064514159502, "Longitude": 135.75860457984601 }, "geometry": { "type": "Point", "coordinates": [ 135.758604579846008, 34.989064514159502 ] } },
{ "type": "Feature", "properties": { "Name": "Sakaean  ", "JapaneseName": "さかえ庵", "Station": "Karasuma", "FirstCategory": "Izakaya (Tavern)", "SecondCategory": "Nihonshu (Japanese sake)", "DinnerPrice": "￥2000～￥2999", "LunchPrice": " ～￥999", "TotalRating": "3.09", "DinnerRating": "3.1", "LunchRating": "3.06", "ReviewNum": "31", "Latitude": 35.004683738948302, "Longitude": 135.76241409988401 }, "geometry": { "type": "Point", "coordinates": [ 135.762414099884012, 35.004683738948302 ] } },
{ "type": "Feature", "properties": { "Name": "biakicchinnikubarujikabiyajikabiya  ", "JapaneseName": "ビアキッチン肉バル ジカビヤ 京都河原町店", "Station": "Kawaramachi", "FirstCategory": "Bar", "SecondCategory": "Izakaya (Tavern)", "DinnerPrice": "￥3000～￥3999", "LunchPrice": "￥1000～￥1999", "TotalRating": "3.06", "DinnerRating": "3.06", "LunchRating": "NA", "ReviewNum": "21", "Latitude": 35.006269244033497, "Longitude": 135.768979037223 }, "geometry": { "type": "Point", "coordinates": [ 135.768979037223005, 35.006269244033497 ] } },
{ "type": "Feature", "properties": { "Name": "ANAGOYA NORESORE  ", "JapaneseName": "穴子家 NORESORE 京都本店", "Station": "Nijojo Mae", "FirstCategory": "Izakaya (Tavern)", "SecondCategory": "Seafood", "DinnerPrice": "￥5000～￥5999", "LunchPrice": "￥2000～￥2999", "TotalRating": "3.5", "DinnerRating": "3.07", "LunchRating": "3.55", "ReviewNum": "16", "Latitude": 35.012584689127898, "Longitude": 135.75361946650301 }, "geometry": { "type": "Point", "coordinates": [ 135.753619466503011, 35.012584689127898 ] } },
{ "type": "Feature", "properties": { "Name": "bejo-tamucho  ", "JapaneseName": "ベジョータ ムチョ 室町店", "Station": "Shijo", "FirstCategory": "Spain", "SecondCategory": "Izakaya (Tavern)", "DinnerPrice": "￥3000～￥3999", "LunchPrice": "NA", "TotalRating": "3.16", "DinnerRating": "3.16", "LunchRating": "NA", "ReviewNum": "18", "Latitude": 35.001386239680201, "Longitude": 135.757912125595 }, "geometry": { "type": "Point", "coordinates": [ 135.757912125594999, 35.001386239680201 ] } },
{ "type": "Feature", "properties": { "Name": "TENTATION  ", "JapaneseName": "タンタシオン", "Station": "Sanjo", "FirstCategory": "Bistro", "SecondCategory": "Italian", "DinnerPrice": "￥4000～￥4999", "LunchPrice": "NA", "TotalRating": "3.06", "DinnerRating": "3.06", "LunchRating": "NA", "ReviewNum": "3", "Latitude": 35.009557804072998, "Longitude": 135.770289888056 }, "geometry": { "type": "Point", "coordinates": [ 135.770289888055999, 35.009557804072998 ] } },
{ "type": "Feature", "properties": { "Name": "Izakayariraku  ", "JapaneseName": "居酒屋 りらく", "Station": "Karasuma", "FirstCategory": "Yakitori (Grilled chicken)", "SecondCategory": "Fowl", "DinnerPrice": "￥3000～￥3999", "LunchPrice": "NA", "TotalRating": "3.03", "DinnerRating": "3.03", "LunchRating": "NA", "ReviewNum": "24", "Latitude": 35.0025714742237, "Longitude": 135.762694729386 }, "geometry": { "type": "Point", "coordinates": [ 135.762694729385998, 35.0025714742237 ] } },
{ "type": "Feature", "properties": { "Name": "kyoutohyouto  ", "JapaneseName": "京都 瓢斗 京都店", "Station": "Karasuma", "FirstCategory": "Pork Shabu Shabu", "SecondCategory": "Shabu Shabu (Japanese Steamboat)", "DinnerPrice": "￥8000～￥9999", "LunchPrice": "￥2000～￥2999", "TotalRating": "3.64", "DinnerRating": "3.66", "LunchRating": "3.58", "ReviewNum": "46", "Latitude": 35.005590797246597, "Longitude": 135.758329397355 }, "geometry": { "type": "Point", "coordinates": [ 135.758329397354998, 35.005590797246597 ] } },
{ "type": "Feature", "properties": { "Name": "Robatayagaburi  ", "JapaneseName": "炉端屋 がぶり", "Station": "Karasuma", "FirstCategory": "Izakaya (Tavern)", "SecondCategory": "Seafood", "DinnerPrice": "￥4000～￥4999", "LunchPrice": "NA", "TotalRating": "3.09", "DinnerRating": "3.09", "LunchRating": "NA", "ReviewNum": "16", "Latitude": 35.00651710655, "Longitude": 135.759445373136 }, "geometry": { "type": "Point", "coordinates": [ 135.759445373136003, 35.00651710655 ] } },
{ "type": "Feature", "properties": { "Name": "Kushiyachouemon  ", "JapaneseName": "長右衛門 京都烏丸店", "Station": "Karasuma", "FirstCategory": "Izakaya (Tavern)", "SecondCategory": "Yakitori (Grilled chicken)", "DinnerPrice": "￥3000～￥3999", "LunchPrice": " ～￥999", "TotalRating": "3.03", "DinnerRating": "3.03", "LunchRating": "3.02", "ReviewNum": "10", "Latitude": 35.005088416212203, "Longitude": 135.762063832564 }, "geometry": { "type": "Point", "coordinates": [ 135.762063832563996, 35.005088416212203 ] } },
{ "type": "Feature", "properties": { "Name": "Torattoriaviare  ", "JapaneseName": "トラットリアヴィアーレ 京都本店", "Station": "Kiyomizu Gojo", "FirstCategory": "Italian", "SecondCategory": "Western Cuisine", "DinnerPrice": "￥5000～￥5999", "LunchPrice": "￥1000～￥1999", "TotalRating": "3.44", "DinnerRating": "3.3", "LunchRating": "3.31", "ReviewNum": "33", "Latitude": 34.9985422700966, "Longitude": 135.76768283396899 }, "geometry": { "type": "Point", "coordinates": [ 135.767682833968991, 34.9985422700966 ] } },
{ "type": "Feature", "properties": { "Name": "Komefuku  ", "JapaneseName": "米福 京都木屋町", "Station": "Sanjo", "FirstCategory": "Tempura", "SecondCategory": "Seafood", "DinnerPrice": "￥3000～￥3999", "LunchPrice": "NA", "TotalRating": "3.06", "DinnerRating": "3.06", "LunchRating": "NA", "ReviewNum": "10", "Latitude": 35.008294612722302, "Longitude": 135.77068324688099 }, "geometry": { "type": "Point", "coordinates": [ 135.770683246880992, 35.008294612722302 ] } },
{ "type": "Feature", "properties": { "Name": "Togiya  ", "JapaneseName": "十祇家 木屋町御池店", "Station": "Kyoto Shiyakusho Mae", "FirstCategory": "Izakaya (Tavern)", "SecondCategory": "Chinese", "DinnerPrice": "￥3000～￥3999", "LunchPrice": "￥1000～￥1999", "TotalRating": "3.08", "DinnerRating": "3.08", "LunchRating": "NA", "ReviewNum": "23", "Latitude": 35.011828404524302, "Longitude": 135.77086140271601 }, "geometry": { "type": "Point", "coordinates": [ 135.770861402716008, 35.011828404524302 ] } },
{ "type": "Feature", "properties": { "Name": "kushiyakimanten  ", "JapaneseName": "串焼 満天 先斗町店", "Station": "Sanjo", "FirstCategory": "Yakitori (Grilled chicken)", "SecondCategory": "Kyoto Cuisine", "DinnerPrice": "￥3000～￥3999", "LunchPrice": "NA", "TotalRating": "3.35", "DinnerRating": "3.35", "LunchRating": "3.04", "ReviewNum": "14", "Latitude": 35.007961320617802, "Longitude": 135.771002680142 }, "geometry": { "type": "Point", "coordinates": [ 135.771002680142004, 35.007961320617802 ] } },
{ "type": "Feature", "properties": { "Name": "Kurogewagyuutenshou  ", "JapaneseName": "黒毛和牛 天正", "Station": "Marutamachi", "FirstCategory": "Yakiniku (BBQ Beef)", "SecondCategory": "Sukiyaki", "DinnerPrice": "￥5000～￥5999", "LunchPrice": " ～￥999", "TotalRating": "3.5", "DinnerRating": "3.47", "LunchRating": "3.16", "ReviewNum": "13", "Latitude": 35.014663751236903, "Longitude": 135.76036464392601 }, "geometry": { "type": "Point", "coordinates": [ 135.76036464392601, 35.014663751236903 ] } },
{ "type": "Feature", "properties": { "Name": "Chizutakkarubikoshitsubaruvino  ", "JapaneseName": "チーズタッカルビ×個室 バル・ヴィーノ", "Station": "Sanjo", "FirstCategory": "Izakaya (Tavern)", "SecondCategory": "Dining bar", "DinnerPrice": "￥2000～￥2999", "LunchPrice": "NA", "TotalRating": "3.17", "DinnerRating": "3.17", "LunchRating": "NA", "ReviewNum": "10", "Latitude": 35.007389408114797, "Longitude": 135.769329234342 }, "geometry": { "type": "Point", "coordinates": [ 135.769329234341996, 35.007389408114797 ] } },
{ "type": "Feature", "properties": { "Name": "teppandainingukyoushikian  ", "JapaneseName": "鉄板ダイニング 京四季庵", "Station": "Gion Shijo", "FirstCategory": "Teppanyaki", "SecondCategory": "Steak", "DinnerPrice": "￥5000～￥5999", "LunchPrice": "NA", "TotalRating": "3.06", "DinnerRating": "3.06", "LunchRating": "NA", "ReviewNum": "16", "Latitude": 35.0050871864524, "Longitude": 135.77116640998599 }, "geometry": { "type": "Point", "coordinates": [ 135.771166409985995, 35.0050871864524 ] } },
{ "type": "Feature", "properties": { "Name": "Yasuma  ", "JapaneseName": "靖馬", "Station": "Kawaramachi", "FirstCategory": "Izakaya (Tavern)", "SecondCategory": "Kyoto Cuisine", "DinnerPrice": "￥3000～￥3999", "LunchPrice": "NA", "TotalRating": "3.02", "DinnerRating": "3.02", "LunchRating": "NA", "ReviewNum": "26", "Latitude": 35.004371682582999, "Longitude": 135.76974406105501 }, "geometry": { "type": "Point", "coordinates": [ 135.769744061055007, 35.004371682582999 ] } },
{ "type": "Feature", "properties": { "Name": "In the Soup.  ", "JapaneseName": "in the Soup.", "Station": "Gion Shijo", "FirstCategory": "Bar", "SecondCategory": "Bistro", "DinnerPrice": "￥3000～￥3999", "LunchPrice": "￥1000～￥1999", "TotalRating": "3.02", "DinnerRating": "3.03", "LunchRating": "NA", "ReviewNum": "5", "Latitude": 35.004126761560997, "Longitude": 135.77276576582301 }, "geometry": { "type": "Point", "coordinates": [ 135.77276576582301, 35.004126761560997 ] } },
{ "type": "Feature", "properties": { "Name": "Gionyakinikukokoro  ", "JapaneseName": "祇園焼肉 志", "Station": "Gion Shijo", "FirstCategory": "Yakiniku (BBQ Beef)", "SecondCategory": "Horumon (BBQ Offel)", "DinnerPrice": "￥5000～￥5999", "LunchPrice": "NA", "TotalRating": "3.06", "DinnerRating": "3.06", "LunchRating": "NA", "ReviewNum": "5", "Latitude": 35.005670253159103, "Longitude": 135.77537520026701 }, "geometry": { "type": "Point", "coordinates": [ 135.775375200267007, 35.005670253159103 ] } },
{ "type": "Feature", "properties": { "Name": "daininguba-daburyu-  ", "JapaneseName": "Dining Bar W", "Station": "Gion Shijo", "FirstCategory": "Kappo (Traditional Japanese)", "SecondCategory": "Steak", "DinnerPrice": "￥4000～￥4999", "LunchPrice": "NA", "TotalRating": "3.25", "DinnerRating": "3.25", "LunchRating": "NA", "ReviewNum": "17", "Latitude": 35.005136651470103, "Longitude": 135.77264711806899 }, "geometry": { "type": "Point", "coordinates": [ 135.772647118068988, 35.005136651470103 ] } },
{ "type": "Feature", "properties": { "Name": "Kyoutodaina  ", "JapaneseName": "京都ダイナー", "Station": "Karasuma", "FirstCategory": "Bistro", "SecondCategory": "Bar", "DinnerPrice": "￥3000～￥3999", "LunchPrice": "￥2000～￥2999", "TotalRating": "3.54", "DinnerRating": "3.53", "LunchRating": "3.32", "ReviewNum": "82", "Latitude": 35.005306746115203, "Longitude": 135.76388077677399 }, "geometry": { "type": "Point", "coordinates": [ 135.763880776773988, 35.005306746115203 ] } },
{ "type": "Feature", "properties": { "Name": "Zasoudouhigashiyamakyouto  ", "JapaneseName": "THE SODOH HIGASHIYAMA KYOTO", "Station": "Gion Shijo", "FirstCategory": "Italian", "SecondCategory": "Pasta", "DinnerPrice": "￥6000～￥7999", "LunchPrice": "￥2000～￥2999", "TotalRating": "3.61", "DinnerRating": "3.61", "LunchRating": "3.58", "ReviewNum": "272", "Latitude": 34.9988963304625, "Longitude": 135.77966793341801 }, "geometry": { "type": "Point", "coordinates": [ 135.779667933418011, 34.9988963304625 ] } },
{ "type": "Feature", "properties": { "Name": "Gokyou  ", "JapaneseName": "牛京 東九条店", "Station": "Jujo", "FirstCategory": "Yakiniku (BBQ Beef)", "SecondCategory": "Horumon (BBQ Offel)", "DinnerPrice": "￥3000～￥3999", "LunchPrice": "NA", "TotalRating": "3.04", "DinnerRating": "3.04", "LunchRating": "NA", "ReviewNum": "2", "Latitude": 34.975404325038802, "Longitude": 135.759545963938 }, "geometry": { "type": "Point", "coordinates": [ 135.759545963937995, 34.975404325038802 ] } },
{ "type": "Feature", "properties": { "Name": "Ichifuji  ", "JapaneseName": "一知富士", "Station": "Shijo", "FirstCategory": "Izakaya (Tavern)", "SecondCategory": "Kappo (Traditional Japanese)", "DinnerPrice": "￥4000～￥4999", "LunchPrice": "NA", "TotalRating": "3.05", "DinnerRating": "3.05", "LunchRating": "NA", "ReviewNum": "12", "Latitude": 35.001374579869101, "Longitude": 135.758233210577 }, "geometry": { "type": "Point", "coordinates": [ 135.758233210577004, 35.001374579869101 ] } },
{ "type": "Feature", "properties": { "Name": "Tsukihikarasuma  ", "JapaneseName": "月陽 KARASUMA", "Station": "Shijo", "FirstCategory": "Izakaya (Tavern)", "SecondCategory": "Creative cuisine", "DinnerPrice": "￥4000～￥4999", "LunchPrice": "￥1000～￥1999", "TotalRating": "3.17", "DinnerRating": "3.17", "LunchRating": "3.03", "ReviewNum": "35", "Latitude": 35.001404283175503, "Longitude": 135.75733217292901 }, "geometry": { "type": "Point", "coordinates": [ 135.757332172929011, 35.001404283175503 ] } },
{ "type": "Feature", "properties": { "Name": "Kyoutotempuraendou  ", "JapaneseName": "京都 天ぷら圓堂 岡崎邸", "Station": "Higashiyama", "FirstCategory": "Tempura", "SecondCategory": "Kaiseki (Traditional Japanese)", "DinnerPrice": "￥10000～￥14999", "LunchPrice": "￥5000～￥5999", "TotalRating": "3.55", "DinnerRating": "3.45", "LunchRating": "3.59", "ReviewNum": "6", "Latitude": 35.016166715602999, "Longitude": 135.78025014546 }, "geometry": { "type": "Point", "coordinates": [ 135.780250145460002, 35.016166715602999 ] } },
{ "type": "Feature", "properties": { "Name": "Resutoraniro  ", "JapaneseName": "restaurant IRO", "Station": "Karasuma", "FirstCategory": "Izakaya (Tavern)", "SecondCategory": "Creative cuisine", "DinnerPrice": "￥4000～￥4999", "LunchPrice": "NA", "TotalRating": "3.08", "DinnerRating": "3.08", "LunchRating": "NA", "ReviewNum": "31", "Latitude": 35.002915054146101, "Longitude": 135.763259341262 }, "geometry": { "type": "Point", "coordinates": [ 135.763259341262, 35.002915054146101 ] } },
{ "type": "Feature", "properties": { "Name": "Shuteimichiya  ", "JapaneseName": "酒亭 道や", "Station": "Karasuma Oike", "FirstCategory": "Izakaya (Tavern)", "SecondCategory": "Seafood", "DinnerPrice": "￥5000～￥5999", "LunchPrice": " ～￥999", "TotalRating": "3.06", "DinnerRating": "3.06", "LunchRating": "NA", "ReviewNum": "1", "Latitude": 35.013321921682099, "Longitude": 135.75872539740101 }, "geometry": { "type": "Point", "coordinates": [ 135.758725397401008, 35.013321921682099 ] } },
{ "type": "Feature", "properties": { "Name": "Trattoria La Pace  ", "JapaneseName": "トラットリア ラパーチェ", "Station": "Karasuma", "FirstCategory": "Italian", "SecondCategory": "Pizza", "DinnerPrice": "￥4000～￥4999", "LunchPrice": "￥1000～￥1999", "TotalRating": "3.51", "DinnerRating": "3.3", "LunchRating": "3.51", "ReviewNum": "52", "Latitude": 35.005260086940901, "Longitude": 135.76334760693101 }, "geometry": { "type": "Point", "coordinates": [ 135.763347606931006, 35.005260086940901 ] } },
{ "type": "Feature", "properties": { "Name": "Izakayabambu  ", "JapaneseName": "居酒屋 バンブー 京都駅前", "Station": "Kyoto", "FirstCategory": "Izakaya (Tavern)", "SecondCategory": "Kappo (Traditional Japanese)", "DinnerPrice": "￥3000～￥3999", "LunchPrice": "NA", "TotalRating": "3.02", "DinnerRating": "3.02", "LunchRating": "NA", "ReviewNum": "20", "Latitude": 34.98456517764, "Longitude": 135.75313440796799 }, "geometry": { "type": "Point", "coordinates": [ 135.753134407967991, 34.98456517764 ] } },
{ "type": "Feature", "properties": { "Name": "Peppa  ", "JapaneseName": "ペッパー", "Station": "Kawaramachi", "FirstCategory": "Okinawan Cuisine", "SecondCategory": "Izakaya (Tavern)", "DinnerPrice": "￥3000～￥3999", "LunchPrice": "NA", "TotalRating": "3.08", "DinnerRating": "3.09", "LunchRating": "NA", "ReviewNum": "11", "Latitude": 35.0051163351892, "Longitude": 135.770318423513 }, "geometry": { "type": "Point", "coordinates": [ 135.770318423513004, 35.0051163351892 ] } },
{ "type": "Feature", "properties": { "Name": "Banikuryourisemmontenumayarou  ", "JapaneseName": "馬肉料理専門店　馬野郎", "Station": "Kawaramachi", "FirstCategory": "Yakiniku (BBQ Beef)", "SecondCategory": "Shabu Shabu (Japanese Steamboat)", "DinnerPrice": "￥3000～￥3999", "LunchPrice": "NA", "TotalRating": "3.51", "DinnerRating": "3.51", "LunchRating": "NA", "ReviewNum": "52", "Latitude": 35.004795811489501, "Longitude": 135.77029275850401 }, "geometry": { "type": "Point", "coordinates": [ 135.770292758504013, 35.004795811489501 ] } },
{ "type": "Feature", "properties": { "Name": "Teppanryourihanaroku  ", "JapaneseName": "鉄板料理 花六", "Station": "Gojo", "FirstCategory": "Teppanyaki", "SecondCategory": "Kyoto Cuisine", "DinnerPrice": "￥10000～￥14999", "LunchPrice": "NA", "TotalRating": "3.47", "DinnerRating": "3.47", "LunchRating": "NA", "ReviewNum": "2", "Latitude": 34.993459060622598, "Longitude": 135.75954957680901 }, "geometry": { "type": "Point", "coordinates": [ 135.759549576809007, 34.993459060622598 ] } },
{ "type": "Feature", "properties": { "Name": "Kyoutohanabi  ", "JapaneseName": "京都ハナビ", "Station": "Karasuma", "FirstCategory": "Izakaya (Tavern)", "SecondCategory": "Japanese food (other)", "DinnerPrice": "￥2000～￥2999", "LunchPrice": "NA", "TotalRating": "3.12", "DinnerRating": "3.12", "LunchRating": "NA", "ReviewNum": "25", "Latitude": 35.002672320594897, "Longitude": 135.76255750907799 }, "geometry": { "type": "Point", "coordinates": [ 135.762557509077993, 35.002672320594897 ] } },
{ "type": "Feature", "properties": { "Name": "Kyoutohananomai  ", "JapaneseName": "京都 花の舞", "Station": "Kyoto", "FirstCategory": "Izakaya (Tavern)", "SecondCategory": "Seafood", "DinnerPrice": "￥3000～￥3999", "LunchPrice": " ～￥999", "TotalRating": "3.04", "DinnerRating": "3.04", "LunchRating": "NA", "ReviewNum": "11", "Latitude": 34.986790909852701, "Longitude": 135.76097448770599 }, "geometry": { "type": "Point", "coordinates": [ 135.760974487705994, 34.986790909852701 ] } },
{ "type": "Feature", "properties": { "Name": "pontochoutanrakuyatoriume  ", "JapaneseName": "先斗町 炭楽屋とりうめ", "Station": "Sanjo", "FirstCategory": "Yakitori (Grilled chicken)", "SecondCategory": "Izakaya (Tavern)", "DinnerPrice": "￥4000～￥4999", "LunchPrice": "NA", "TotalRating": "3.05", "DinnerRating": "3.05", "LunchRating": "NA", "ReviewNum": "7", "Latitude": 35.007673299512902, "Longitude": 135.771211287189 }, "geometry": { "type": "Point", "coordinates": [ 135.771211287189004, 35.007673299512902 ] } },
{ "type": "Feature", "properties": { "Name": "Osakanadekoboko  ", "JapaneseName": "御肴 凸鉾", "Station": "Kyoto", "FirstCategory": "Izakaya (Tavern)", "SecondCategory": "Seafood", "DinnerPrice": "￥3000～￥3999", "LunchPrice": "NA", "TotalRating": "3.42", "DinnerRating": "3.42", "LunchRating": "NA", "ReviewNum": "18", "Latitude": 34.989702545804498, "Longitude": 135.761142673015 }, "geometry": { "type": "Point", "coordinates": [ 135.761142673015001, 34.989702545804498 ] } },
{ "type": "Feature", "properties": { "Name": "Sunny  ", "JapaneseName": "Sunny", "Station": "Sanjo", "FirstCategory": "Dining bar", "SecondCategory": "Steak", "DinnerPrice": "￥3000～￥3999", "LunchPrice": "￥1000～￥1999", "TotalRating": "3.48", "DinnerRating": "3.33", "LunchRating": "3.35", "ReviewNum": "39", "Latitude": 35.008812616655703, "Longitude": 135.770899871707 }, "geometry": { "type": "Point", "coordinates": [ 135.770899871707002, 35.008812616655703 ] } },
{ "type": "Feature", "properties": { "Name": "Gochiya  ", "JapaneseName": "ご馳家", "Station": "Kyoto", "FirstCategory": "Izakaya (Tavern)", "SecondCategory": "Creative cuisine", "DinnerPrice": "￥3000～￥3999", "LunchPrice": " ～￥999", "TotalRating": "3.18", "DinnerRating": "3.13", "LunchRating": "3.1", "ReviewNum": "33", "Latitude": 34.988440460958799, "Longitude": 135.761279108682 }, "geometry": { "type": "Point", "coordinates": [ 135.761279108682004, 34.988440460958799 ] } },
{ "type": "Feature", "properties": { "Name": "Shusaijoujou  ", "JapaneseName": "酒菜 乗々", "Station": "Kyoto", "FirstCategory": "Creative cuisine", "SecondCategory": "Izakaya (Tavern)", "DinnerPrice": "￥5000～￥5999", "LunchPrice": "NA", "TotalRating": "3.03", "DinnerRating": "3.03", "LunchRating": "3.03", "ReviewNum": "12", "Latitude": 34.988364846688398, "Longitude": 135.75529786885099 }, "geometry": { "type": "Point", "coordinates": [ 135.755297868850988, 34.988364846688398 ] } },
{ "type": "Feature", "properties": { "Name": "o-rudeidainingukaza  ", "JapaneseName": "オールデイダイニング カザ", "Station": "Kyoto", "FirstCategory": "Buffet style", "SecondCategory": "Cafe", "DinnerPrice": "￥4000～￥4999", "LunchPrice": "￥2000～￥2999", "TotalRating": "3.41", "DinnerRating": "3.08", "LunchRating": "3.52", "ReviewNum": "15", "Latitude": 34.986160829291698, "Longitude": 135.75250410906901 }, "geometry": { "type": "Point", "coordinates": [ 135.752504109069008, 34.986160829291698 ] } },
{ "type": "Feature", "properties": { "Name": "Yakinikudainingukinoe  ", "JapaneseName": "焼肉ダイニング 甲", "Station": "Kyoto Shiyakusho Mae", "FirstCategory": "Yakiniku (BBQ Beef)", "SecondCategory": "Korean cuisine", "DinnerPrice": "￥5000～￥5999", "LunchPrice": "NA", "TotalRating": "3.58", "DinnerRating": "3.57", "LunchRating": "3.51", "ReviewNum": "39", "Latitude": 35.012260463540599, "Longitude": 135.764163605741 }, "geometry": { "type": "Point", "coordinates": [ 135.764163605741004, 35.012260463540599 ] } },
{ "type": "Feature", "properties": { "Name": "Manjirou  ", "JapaneseName": "萬治郎", "Station": "Gion Shijo", "FirstCategory": "Kaiseki (Traditional Japanese)", "SecondCategory": "Kyoto Cuisine", "DinnerPrice": "￥10000～￥14999", "LunchPrice": "￥3000～￥3999", "TotalRating": "3.57", "DinnerRating": "3.54", "LunchRating": "3.53", "ReviewNum": "57", "Latitude": 35.001745754164801, "Longitude": 135.780026105812 }, "geometry": { "type": "Point", "coordinates": [ 135.780026105811999, 35.001745754164801 ] } },
{ "type": "Feature", "properties": { "Name": "Sakayaagurema  ", "JapaneseName": "酒彩 あぐれま", "Station": "Sanjo", "FirstCategory": "Izakaya (Tavern)", "SecondCategory": "Sukiyaki", "DinnerPrice": "￥4000～￥4999", "LunchPrice": "NA", "TotalRating": "3.03", "DinnerRating": "3.03", "LunchRating": "NA", "ReviewNum": "9", "Latitude": 35.009407817767503, "Longitude": 135.77015546168201 }, "geometry": { "type": "Point", "coordinates": [ 135.770155461682009, 35.009407817767503 ] } },
{ "type": "Feature", "properties": { "Name": "chuugokuryourichimmin  ", "JapaneseName": "中国料理 青冥 祇園店", "Station": "Gion Shijo", "FirstCategory": "Chinese", "SecondCategory": "Dim sum", "DinnerPrice": "￥5000～￥5999", "LunchPrice": "￥1000～￥1999", "TotalRating": "3.5", "DinnerRating": "3.21", "LunchRating": "3.52", "ReviewNum": "44", "Latitude": 35.004135966473399, "Longitude": 135.775011689987 }, "geometry": { "type": "Point", "coordinates": [ 135.775011689986997, 35.004135966473399 ] } },
{ "type": "Feature", "properties": { "Name": "Hanasaki  ", "JapaneseName": "花咲 錦店", "Station": "Karasuma", "FirstCategory": "Kyoto Cuisine", "SecondCategory": "Kaiseki (Traditional Japanese)", "DinnerPrice": "￥10000～￥14999", "LunchPrice": "￥4000～￥4999", "TotalRating": "3.58", "DinnerRating": "3.54", "LunchRating": "3.58", "ReviewNum": "30", "Latitude": 35.004399620947801, "Longitude": 135.76320599164299 }, "geometry": { "type": "Point", "coordinates": [ 135.763205991642991, 35.004399620947801 ] } },
{ "type": "Feature", "properties": { "Name": "nikushokusakabagaru  ", "JapaneseName": "肉食酒場 garu", "Station": "Gion Shijo", "FirstCategory": "Bar", "SecondCategory": "Sumibiyaki", "DinnerPrice": "￥4000～￥4999", "LunchPrice": " ～￥999", "TotalRating": "3.04", "DinnerRating": "3.04", "LunchRating": "NA", "ReviewNum": "11", "Latitude": 35.004821651841901, "Longitude": 135.77073951322001 }, "geometry": { "type": "Point", "coordinates": [ 135.770739513220008, 35.004821651841901 ] } },
{ "type": "Feature", "properties": { "Name": "furenchidainingutoppuobukyouto  ", "JapaneseName": "フレンチダイニング トップ オブ キョウト", "Station": "Kyoto", "FirstCategory": "French", "SecondCategory": "Restaurants (other)", "DinnerPrice": "￥10000～￥14999", "LunchPrice": "￥5000～￥5999", "TotalRating": "3.07", "DinnerRating": "3.07", "LunchRating": "3.06", "ReviewNum": "33", "Latitude": 34.986162495794701, "Longitude": 135.75250494225699 }, "geometry": { "type": "Point", "coordinates": [ 135.752504942256991, 34.986162495794701 ] } },
{ "type": "Feature", "properties": { "Name": "takaradoukarasuma  ", "JapaneseName": "宝堂 KARASUMA", "Station": "Shijo", "FirstCategory": "Izakaya (Tavern)", "SecondCategory": "Sukiyaki", "DinnerPrice": "￥3000～￥3999", "LunchPrice": "NA", "TotalRating": "3.05", "DinnerRating": "3.05", "LunchRating": "NA", "ReviewNum": "4", "Latitude": 35.002534709275402, "Longitude": 135.756842994842 }, "geometry": { "type": "Point", "coordinates": [ 135.756842994842003, 35.002534709275402 ] } },
{ "type": "Feature", "properties": { "Name": "Ikedayahananomai  ", "JapaneseName": "池田屋　はなの舞", "Station": "Kyoto Shiyakusho Mae", "FirstCategory": "Izakaya (Tavern)", "SecondCategory": "Kyoto Cuisine", "DinnerPrice": "￥3000～￥3999", "LunchPrice": "NA", "TotalRating": "3.07", "DinnerRating": "3.08", "LunchRating": "3.06", "ReviewNum": "59", "Latitude": 35.008810366020498, "Longitude": 135.76925945249201 }, "geometry": { "type": "Point", "coordinates": [ 135.769259452492008, 35.008810366020498 ] } },
{ "type": "Feature", "properties": { "Name": "Kyoutogiontempurayasakaendou  ", "JapaneseName": "京都祇園 天ぷら八坂圓堂", "Station": "Gion Shijo", "FirstCategory": "Tempura", "SecondCategory": "Kaiseki (Traditional Japanese)", "DinnerPrice": "￥10000～￥14999", "LunchPrice": "￥5000～￥5999", "TotalRating": "3.68", "DinnerRating": "3.64", "LunchRating": "3.68", "ReviewNum": "252", "Latitude": 34.998914582257399, "Longitude": 135.77511164430999 }, "geometry": { "type": "Point", "coordinates": [ 135.775111644309987, 34.998914582257399 ] } },
{ "type": "Feature", "properties": { "Name": "Ryoumashamonoujou  ", "JapaneseName": "龍馬 軍鶏農場 京都駅前店", "Station": "Kyoto", "FirstCategory": "Izakaya (Tavern)", "SecondCategory": "Yakitori (Grilled chicken)", "DinnerPrice": "￥3000～￥3999", "LunchPrice": "NA", "TotalRating": "3", "DinnerRating": "3.01", "LunchRating": "3", "ReviewNum": "27", "Latitude": 34.9880182697134, "Longitude": 135.76046725110001 }, "geometry": { "type": "Point", "coordinates": [ 135.76046725110001, 34.9880182697134 ] } },
{ "type": "Feature", "properties": { "Name": "Komefuku  ", "JapaneseName": "米福 四条烏丸", "Station": "Karasuma", "FirstCategory": "Tempura", "SecondCategory": "Ten-don (Tempura Bowl)", "DinnerPrice": "￥2000～￥2999", "LunchPrice": " ～￥999", "TotalRating": "3.55", "DinnerRating": "3.51", "LunchRating": "3.56", "ReviewNum": "140", "Latitude": 35.004606233149602, "Longitude": 135.761353080459 }, "geometry": { "type": "Point", "coordinates": [ 135.761353080459003, 35.004606233149602 ] } },
{ "type": "Feature", "properties": { "Name": "Gionkyouryourihanasaki  ", "JapaneseName": "祇園 京料理 花咲", "Station": "Gion Shijo", "FirstCategory": "Kyoto Cuisine", "SecondCategory": "Kaiseki (Traditional Japanese)", "DinnerPrice": "￥10000～￥14999", "LunchPrice": "￥4000～￥4999", "TotalRating": "3.5", "DinnerRating": "3.32", "LunchRating": "3.45", "ReviewNum": "56", "Latitude": 35.001987605201002, "Longitude": 135.77615947135601 }, "geometry": { "type": "Point", "coordinates": [ 135.77615947135601, 35.001987605201002 ] } },
{ "type": "Feature", "properties": { "Name": "Izakayashinoomiya  ", "JapaneseName": "はなまる串カツ製作所 大宮店", "Station": "Shijo Omiya", "FirstCategory": "Izakaya (Tavern)", "SecondCategory": "Kushi-age (Fried Skewer)", "DinnerPrice": "￥2000～￥2999", "LunchPrice": "NA", "TotalRating": "3.14", "DinnerRating": "3.14", "LunchRating": "NA", "ReviewNum": "30", "Latitude": 35.004796254594901, "Longitude": 135.747841693829 }, "geometry": { "type": "Point", "coordinates": [ 135.747841693829002, 35.004796254594901 ] } },
{ "type": "Feature", "properties": { "Name": "Ittetsugurache  ", "JapaneseName": "Ittetsu Grazie", "Station": "Karasuma", "FirstCategory": "Yakiniku (BBQ Beef)", "SecondCategory": "Bar", "DinnerPrice": "￥3000～￥3999", "LunchPrice": " ～￥999", "TotalRating": "3.52", "DinnerRating": "3.5", "LunchRating": "3.32", "ReviewNum": "33", "Latitude": 35.004703696227502, "Longitude": 135.76253848463401 }, "geometry": { "type": "Point", "coordinates": [ 135.762538484634007, 35.004703696227502 ] } },
{ "type": "Feature", "properties": { "Name": "Ichishun  ", "JapaneseName": "一瞬", "Station": "Kyoto", "FirstCategory": "Izakaya (Tavern)", "SecondCategory": "Japanese food (other)", "DinnerPrice": "￥4000～￥4999", "LunchPrice": " ～￥999", "TotalRating": "3.53", "DinnerRating": "3.52", "LunchRating": "3.4", "ReviewNum": "72", "Latitude": 34.987779944493198, "Longitude": 135.75947234469999 }, "geometry": { "type": "Point", "coordinates": [ 135.759472344699986, 34.987779944493198 ] } },
{ "type": "Feature", "properties": { "Name": "Nikokubaru  ", "JapaneseName": "ニューコクバル 京都山科店", "Station": "Keihan Yamashina", "FirstCategory": "Izakaya (Tavern)", "SecondCategory": "Kushi-age (Fried Skewer)", "DinnerPrice": "￥2000～￥2999", "LunchPrice": "NA", "TotalRating": "3.03", "DinnerRating": "3.03", "LunchRating": "NA", "ReviewNum": "15", "Latitude": 34.990607018402798, "Longitude": 135.81600113093799 }, "geometry": { "type": "Point", "coordinates": [ 135.816001130937991, 34.990607018402798 ] } },
{ "type": "Feature", "properties": { "Name": "Teppansakuwan  ", "JapaneseName": "鉄板 さくわん", "Station": "Saiin", "FirstCategory": "Teppanyaki", "SecondCategory": "Izakaya (Tavern)", "DinnerPrice": "￥3000～￥3999", "LunchPrice": "NA", "TotalRating": "3.04", "DinnerRating": "3.04", "LunchRating": "NA", "ReviewNum": "1", "Latitude": 35.002921157704499, "Longitude": 135.730812638868 }, "geometry": { "type": "Point", "coordinates": [ 135.730812638868002, 35.002921157704499 ] } },
{ "type": "Feature", "properties": { "Name": "RIGOLETTO SMOKE GRILL & BAR  ", "JapaneseName": "RIGOLETTO SMOKE GRILL & BAR", "Station": "Gion Shijo", "FirstCategory": "Italian", "SecondCategory": "Spain", "DinnerPrice": "￥4000～￥4999", "LunchPrice": "￥1000～￥1999", "TotalRating": "3.52", "DinnerRating": "3.5", "LunchRating": "3.51", "ReviewNum": "113", "Latitude": 35.002385340213301, "Longitude": 135.77614667632801 }, "geometry": { "type": "Point", "coordinates": [ 135.776146676328011, 35.002385340213301 ] } },
{ "type": "Feature", "properties": { "Name": "Kugurinaberoppakuya  ", "JapaneseName": "くぐり鍋 六白屋", "Station": "Karasuma", "FirstCategory": "Izakaya (Tavern)", "SecondCategory": "Japanese food (other)", "DinnerPrice": "￥4000～￥4999", "LunchPrice": "NA", "TotalRating": "3.08", "DinnerRating": "3.04", "LunchRating": "3.12", "ReviewNum": "19", "Latitude": 35.004384520843601, "Longitude": 135.75738258708299 }, "geometry": { "type": "Point", "coordinates": [ 135.757382587082986, 35.004384520843601 ] } },
{ "type": "Feature", "properties": { "Name": "Kyouryouritategami  ", "JapaneseName": "京料理 立神", "Station": "Marutamachi", "FirstCategory": "Kyoto Cuisine", "SecondCategory": "Kaiseki (Traditional Japanese)", "DinnerPrice": "￥6000～￥7999", "LunchPrice": "￥2000～￥2999", "TotalRating": "3.51", "DinnerRating": "3.49", "LunchRating": "3.2", "ReviewNum": "11", "Latitude": 35.017654408043803, "Longitude": 135.75266903423901 }, "geometry": { "type": "Point", "coordinates": [ 135.752669034239005, 35.017654408043803 ] } },
{ "type": "Feature", "properties": { "Name": "Pontochourobin  ", "JapaneseName": "先斗町 魯ビン", "Station": "Sanjo", "FirstCategory": "Kyoto Cuisine", "SecondCategory": "Kaiseki (Traditional Japanese)", "DinnerPrice": "￥6000～￥7999", "LunchPrice": "NA", "TotalRating": "3.48", "DinnerRating": "3.23", "LunchRating": "3.5", "ReviewNum": "66", "Latitude": 35.007637467663997, "Longitude": 135.77107685555899 }, "geometry": { "type": "Point", "coordinates": [ 135.771076855558988, 35.007637467663997 ] } },
{ "type": "Feature", "properties": { "Name": "BELLOTA concha  ", "JapaneseName": "ベジョータコンチャ 富小路店", "Station": "Kawaramachi", "FirstCategory": "Spain", "SecondCategory": "Italian", "DinnerPrice": "￥3000～￥3999", "LunchPrice": "￥1000～￥1999", "TotalRating": "3.16", "DinnerRating": "3.16", "LunchRating": "3.06", "ReviewNum": "23", "Latitude": 35.002828714849798, "Longitude": 135.764830752759 }, "geometry": { "type": "Point", "coordinates": [ 135.764830752758996, 35.002828714849798 ] } },
{ "type": "Feature", "properties": { "Name": "Bejitejiya  ", "JapaneseName": "ベジテジや 四条木屋町店", "Station": "Gion Shijo", "FirstCategory": "Yakiniku (BBQ Beef)", "SecondCategory": "Korean cuisine", "DinnerPrice": "￥3000～￥3999", "LunchPrice": "NA", "TotalRating": "3.11", "DinnerRating": "3.11", "LunchRating": "NA", "ReviewNum": "46", "Latitude": 35.003539537873799, "Longitude": 135.77026258033999 }, "geometry": { "type": "Point", "coordinates": [ 135.770262580339988, 35.003539537873799 ] } },
{ "type": "Feature", "properties": { "Name": "Matsuzakagyuuwattsuzakicchin  ", "JapaneseName": "松阪牛 WHAT'S THE KITCHEN", "Station": "Gion Shijo", "FirstCategory": "Steak", "SecondCategory": "Sushi", "DinnerPrice": "￥10000～￥14999", "LunchPrice": "NA", "TotalRating": "3.06", "DinnerRating": "3.06", "LunchRating": "NA", "ReviewNum": "4", "Latitude": 35.006283478162999, "Longitude": 135.772928430793 }, "geometry": { "type": "Point", "coordinates": [ 135.772928430793002, 35.006283478162999 ] } },
{ "type": "Feature", "properties": { "Name": "Sushidokoroima  ", "JapaneseName": "寿し処 今", "Station": "Katsura", "FirstCategory": "Sushi", "SecondCategory": "Seafood", "DinnerPrice": "￥6000～￥7999", "LunchPrice": "NA", "TotalRating": "3.53", "DinnerRating": "3.53", "LunchRating": "NA", "ReviewNum": "13", "Latitude": 34.979850486331998, "Longitude": 135.710131252004 }, "geometry": { "type": "Point", "coordinates": [ 135.710131252004004, 34.979850486331998 ] } },
{ "type": "Feature", "properties": { "Name": "Maribuagaru  ", "JapaneseName": "まりぶあがる", "Station": "Karasuma", "FirstCategory": "Izakaya (Tavern)", "SecondCategory": "Japanese food (other)", "DinnerPrice": "￥3000～￥3999", "LunchPrice": "NA", "TotalRating": "3.1", "DinnerRating": "3.1", "LunchRating": "NA", "ReviewNum": "24", "Latitude": 35.002682739111897, "Longitude": 135.761237630186 }, "geometry": { "type": "Point", "coordinates": [ 135.761237630186002, 35.002682739111897 ] } },
{ "type": "Feature", "properties": { "Name": "Italian bar Lugol  ", "JapaneseName": "イタリアンバール ルゴール", "Station": "Karasuma Oike", "FirstCategory": "Italian", "SecondCategory": "Pasta", "DinnerPrice": "￥2000～￥2999", "LunchPrice": " ～￥999", "TotalRating": "3.03", "DinnerRating": "3.02", "LunchRating": "3.04", "ReviewNum": "28", "Latitude": 35.011187669618302, "Longitude": 135.75667011080199 }, "geometry": { "type": "Point", "coordinates": [ 135.756670110801991, 35.011187669618302 ] } },
{ "type": "Feature", "properties": { "Name": "Takishokudou  ", "JapaneseName": "ターキー食堂", "Station": "Shijo", "FirstCategory": "Dining bar", "SecondCategory": "Izakaya (Tavern)", "DinnerPrice": "￥3000～￥3999", "LunchPrice": "NA", "TotalRating": "3.02", "DinnerRating": "3.02", "LunchRating": "NA", "ReviewNum": "3", "Latitude": 35.0026330051004, "Longitude": 135.755297563109 }, "geometry": { "type": "Point", "coordinates": [ 135.755297563108996, 35.0026330051004 ] } },
{ "type": "Feature", "properties": { "Name": "Bar Pleasure  ", "JapaneseName": "バー プレジャー", "Station": "Kawaramachi", "FirstCategory": "Bar", "SecondCategory": "Wine bar", "DinnerPrice": "￥2000～￥2999", "LunchPrice": "NA", "TotalRating": "3", "DinnerRating": "3", "LunchRating": "NA", "ReviewNum": "2", "Latitude": 35.0061886218041, "Longitude": 135.764668287831 }, "geometry": { "type": "Point", "coordinates": [ 135.764668287831, 35.0061886218041 ] } },
{ "type": "Feature", "properties": { "Name": "Sou  ", "JapaneseName": "宗", "Station": "Shijo", "FirstCategory": "Izakaya (Tavern)", "SecondCategory": "Creative cuisine", "DinnerPrice": "￥4000～￥4999", "LunchPrice": "NA", "TotalRating": "3.55", "DinnerRating": "3.55", "LunchRating": "NA", "ReviewNum": "44", "Latitude": 35.004817770866403, "Longitude": 135.755266076244 }, "geometry": { "type": "Point", "coordinates": [ 135.755266076243998, 35.004817770866403 ] } },
{ "type": "Feature", "properties": { "Name": "Kaisenizakayamatsurishungyotokyouyasaitoosakenoomise  ", "JapaneseName": "海鮮居酒屋 祭ーMATSURIー 〜旬魚と京野菜とお酒のお店〜", "Station": "Kawaramachi", "FirstCategory": "Izakaya (Tavern)", "SecondCategory": "Seafood", "DinnerPrice": "￥3000～￥3999", "LunchPrice": "NA", "TotalRating": "3.03", "DinnerRating": "3.03", "LunchRating": "NA", "ReviewNum": "7", "Latitude": 35.004009278770901, "Longitude": 135.77030080512299 }, "geometry": { "type": "Point", "coordinates": [ 135.770300805122986, 35.004009278770901 ] } },
{ "type": "Feature", "properties": { "Name": "Momojirou  ", "JapaneseName": "ももじろう 師団街道龍大前店", "Station": "Fukakusa", "FirstCategory": "Izakaya (Tavern)", "SecondCategory": "Chanko Nabe (Sumo Wrestlers Hot Pot)", "DinnerPrice": "￥3000～￥3999", "LunchPrice": "NA", "TotalRating": "3.04", "DinnerRating": "3.04", "LunchRating": "NA", "ReviewNum": "8", "Latitude": 34.962816652907399, "Longitude": 135.76802750577201 }, "geometry": { "type": "Point", "coordinates": [ 135.768027505772011, 34.962816652907399 ] } },
{ "type": "Feature", "properties": { "Name": "Yakinikusakayaisshin  ", "JapaneseName": "焼肉酒屋いっ心", "Station": "Rokujizo", "FirstCategory": "Yakiniku (BBQ Beef)", "SecondCategory": "Izakaya (Tavern)", "DinnerPrice": "￥6000～￥7999", "LunchPrice": "NA", "TotalRating": "3.1", "DinnerRating": "3.1", "LunchRating": "3.05", "ReviewNum": "8", "Latitude": 34.9322720261464, "Longitude": 135.79318876690701 }, "geometry": { "type": "Point", "coordinates": [ 135.793188766907008, 34.9322720261464 ] } },
{ "type": "Feature", "properties": { "Name": "Kyouhonoka  ", "JapaneseName": "京ほのか 三条木屋町店", "Station": "Sanjo", "FirstCategory": "Izakaya (Tavern)", "SecondCategory": "Creative cuisine", "DinnerPrice": "￥3000～￥3999", "LunchPrice": "NA", "TotalRating": "3.01", "DinnerRating": "3.02", "LunchRating": "NA", "ReviewNum": "12", "Latitude": 35.009085075398602, "Longitude": 135.77020630565201 }, "geometry": { "type": "Point", "coordinates": [ 135.77020630565201, 35.009085075398602 ] } },
{ "type": "Feature", "properties": { "Name": "Ampan  ", "JapaneseName": "内房", "Station": "Karasuma Oike", "FirstCategory": "Korean cuisine", "SecondCategory": "Yakiniku (BBQ Beef)", "DinnerPrice": "￥3000～￥3999", "LunchPrice": "￥1000～￥1999", "TotalRating": "3.08", "DinnerRating": "3.09", "LunchRating": "3", "ReviewNum": "20", "Latitude": 35.008510728490599, "Longitude": 135.75637053671099 }, "geometry": { "type": "Point", "coordinates": [ 135.756370536710989, 35.008510728490599 ] } },
{ "type": "Feature", "properties": { "Name": "rino  ", "JapaneseName": "Lino", "Station": "Karasuma Oike", "FirstCategory": "Italian", "SecondCategory": "Pasta", "DinnerPrice": "￥6000～￥7999", "LunchPrice": "￥1000～￥1999", "TotalRating": "3.2", "DinnerRating": "3.05", "LunchRating": "3.2", "ReviewNum": "10", "Latitude": 35.013142472915902, "Longitude": 135.75737912858199 }, "geometry": { "type": "Point", "coordinates": [ 135.757379128581988, 35.013142472915902 ] } },
{ "type": "Feature", "properties": { "Name": "REAL NETA DINING ICHIZ  ", "JapaneseName": "イチズ", "Station": "Tambaguchi", "FirstCategory": "Italian", "SecondCategory": "Izakaya (Tavern)", "DinnerPrice": "￥4000～￥4999", "LunchPrice": " ～￥999", "TotalRating": "3.05", "DinnerRating": "3.05", "LunchRating": "3", "ReviewNum": "14", "Latitude": 34.992945089589703, "Longitude": 135.73579685091201 }, "geometry": { "type": "Point", "coordinates": [ 135.73579685091201, 34.992945089589703 ] } },
{ "type": "Feature", "properties": { "Name": "nikubaruginjirou  ", "JapaneseName": "肉バル銀次郎 先斗町店", "Station": "Gion Shijo", "FirstCategory": "Bar", "SecondCategory": "Steak", "DinnerPrice": "￥3000～￥3999", "LunchPrice": "NA", "TotalRating": "3.06", "DinnerRating": "3.07", "LunchRating": "NA", "ReviewNum": "7", "Latitude": 35.0042653266744, "Longitude": 135.77098090767601 }, "geometry": { "type": "Point", "coordinates": [ 135.770980907676005, 35.0042653266744 ] } },
{ "type": "Feature", "properties": { "Name": "Kushikatsutanaka  ", "JapaneseName": "串カツ田中 西院店", "Station": "Saiin", "FirstCategory": "Kushi-age (Fried Skewer)", "SecondCategory": "Izakaya (Tavern)", "DinnerPrice": "￥2000～￥2999", "LunchPrice": "NA", "TotalRating": "3.02", "DinnerRating": "3.02", "LunchRating": "NA", "ReviewNum": "3", "Latitude": 35.003784959638601, "Longitude": 135.73112396213 }, "geometry": { "type": "Point", "coordinates": [ 135.731123962129999, 35.003784959638601 ] } },
{ "type": "Feature", "properties": { "Name": "nihonshusumiyakiyaiki  ", "JapaneseName": "日本酒 炭焼き家 粋", "Station": "Fushimi Momoyama", "FirstCategory": "Izakaya (Tavern)", "SecondCategory": "Kappo (Traditional Japanese)", "DinnerPrice": "￥3000～￥3999", "LunchPrice": "NA", "TotalRating": "3.04", "DinnerRating": "3.05", "LunchRating": "3", "ReviewNum": "9", "Latitude": 34.931994036955103, "Longitude": 135.76348041364901 }, "geometry": { "type": "Point", "coordinates": [ 135.763480413649006, 34.931994036955103 ] } },
{ "type": "Feature", "properties": { "Name": "Taketori  ", "JapaneseName": "竹とり", "Station": "Hanazono", "FirstCategory": "Fowl", "SecondCategory": "Yakitori (Grilled chicken)", "DinnerPrice": "￥4000～￥4999", "LunchPrice": "NA", "TotalRating": "3.06", "DinnerRating": "3.06", "LunchRating": "NA", "ReviewNum": "11", "Latitude": 35.020008092792402, "Longitude": 135.71865044508999 }, "geometry": { "type": "Point", "coordinates": [ 135.718650445089992, 35.020008092792402 ] } },
{ "type": "Feature", "properties": { "Name": "Pierupureshiuzu  ", "JapaneseName": "ピエール プレシウーズ", "Station": "Karasuma Oike", "FirstCategory": "French", "SecondCategory": "Western Cuisine", "DinnerPrice": "￥5000～￥5999", "LunchPrice": "￥1000～￥1999", "TotalRating": "3.06", "DinnerRating": "3.04", "LunchRating": "3.06", "ReviewNum": "14", "Latitude": 35.007260696354898, "Longitude": 135.762778950935 }, "geometry": { "type": "Point", "coordinates": [ 135.762778950935001, 35.007260696354898 ] } },
{ "type": "Feature", "properties": { "Name": "Yamadaruma  ", "JapaneseName": "やまだるま", "Station": "Karasuma Oike", "FirstCategory": "Izakaya (Tavern)", "SecondCategory": "Seafood", "DinnerPrice": "￥3000～￥3999", "LunchPrice": " ～￥999", "TotalRating": "3.03", "DinnerRating": "3.03", "LunchRating": "3.03", "ReviewNum": "10", "Latitude": 35.007340646991402, "Longitude": 135.76044247463199 }, "geometry": { "type": "Point", "coordinates": [ 135.760442474631986, 35.007340646991402 ] } },
{ "type": "Feature", "properties": { "Name": "unagihitsumabushisumiyagura  ", "JapaneseName": "うなぎ･ひつまぶし炭櫓 京都四条河原町店", "Station": "Kawaramachi", "FirstCategory": "Unagi (Freshwater eel)", "SecondCategory": "Kyoto Cuisine", "DinnerPrice": "￥2000～￥2999", "LunchPrice": "￥1000～￥1999", "TotalRating": "3.21", "DinnerRating": "3.03", "LunchRating": "3.21", "ReviewNum": "7", "Latitude": 35.003582046335097, "Longitude": 135.76983075687701 }, "geometry": { "type": "Point", "coordinates": [ 135.769830756877013, 35.003582046335097 ] } },
{ "type": "Feature", "properties": { "Name": "pittsuxeriaba-rurenapori  ", "JapaneseName": "ピッツェリア・バール・レ・ナポリ 京都錦", "Station": "Karasuma", "FirstCategory": "Italian", "SecondCategory": "Pizza", "DinnerPrice": "￥2000～￥2999", "LunchPrice": " ～￥999", "TotalRating": "3.37", "DinnerRating": "3.07", "LunchRating": "3.52", "ReviewNum": "37", "Latitude": 35.005054254587101, "Longitude": 135.762143271984 }, "geometry": { "type": "Point", "coordinates": [ 135.762143271984002, 35.005054254587101 ] } },
{ "type": "Feature", "properties": { "Name": "kyoutoufusousakuhirarinteikakurean  ", "JapaneseName": "京豆腐創作 平林亭 隠れ庵", "Station": "Kyoto", "FirstCategory": "Izakaya (Tavern)", "SecondCategory": "Tofu", "DinnerPrice": "￥3000～￥3999", "LunchPrice": "￥1000～￥1999", "TotalRating": "3", "DinnerRating": "3", "LunchRating": "NA", "ReviewNum": "10", "Latitude": 34.989405891563699, "Longitude": 135.76003750068 }, "geometry": { "type": "Point", "coordinates": [ 135.760037500679999, 34.989405891563699 ] } },
{ "type": "Feature", "properties": { "Name": "Yakinikusebun  ", "JapaneseName": "焼肉 SEVEN", "Station": "Tambaguchi", "FirstCategory": "Yakiniku (BBQ Beef)", "SecondCategory": "Horumon (BBQ Offel)", "DinnerPrice": "￥3000～￥3999", "LunchPrice": "NA", "TotalRating": "3.3", "DinnerRating": "3.3", "LunchRating": "NA", "ReviewNum": "11", "Latitude": 34.989364376206403, "Longitude": 135.73664027906199 }, "geometry": { "type": "Point", "coordinates": [ 135.736640279061987, 34.989364376206403 ] } },
{ "type": "Feature", "properties": { "Name": "Kushiyakimanten  ", "JapaneseName": "串焼き満天 四条烏丸店", "Station": "Karasuma", "FirstCategory": "Yakitori (Grilled chicken)", "SecondCategory": "Izakaya (Tavern)", "DinnerPrice": "￥3000～￥3999", "LunchPrice": "NA", "TotalRating": "3.07", "DinnerRating": "3.08", "LunchRating": "NA", "ReviewNum": "17", "Latitude": 35.004312370569401, "Longitude": 135.761059785014 }, "geometry": { "type": "Point", "coordinates": [ 135.761059785013998, 35.004312370569401 ] } },
{ "type": "Feature", "properties": { "Name": "Yakinikuichiba  ", "JapaneseName": "焼肉市場 高野店", "Station": "Chayama", "FirstCategory": "Yakiniku (BBQ Beef)", "SecondCategory": "Horumon (BBQ Offel)", "DinnerPrice": "￥3000～￥3999", "LunchPrice": "NA", "TotalRating": "3.04", "DinnerRating": "3.04", "LunchRating": "NA", "ReviewNum": "3", "Latitude": 35.040592555910898, "Longitude": 135.787095952307 }, "geometry": { "type": "Point", "coordinates": [ 135.787095952306998, 35.040592555910898 ] } },
{ "type": "Feature", "properties": { "Name": "Pizzeria e Bar La Voce  ", "JapaneseName": "Pizzeria e Bar La Voce", "Station": "Kawaramachi", "FirstCategory": "Italian", "SecondCategory": "Pizza", "DinnerPrice": "￥3000～￥3999", "LunchPrice": "￥1000～￥1999", "TotalRating": "3.18", "DinnerRating": "3.18", "LunchRating": "3.05", "ReviewNum": "14", "Latitude": 35.002445710635698, "Longitude": 135.765917523079 }, "geometry": { "type": "Point", "coordinates": [ 135.765917523078997, 35.002445710635698 ] } },
{ "type": "Feature", "properties": { "Name": "Nyavetonamu  ", "JapaneseName": "ニャーヴェトナム 京都店", "Station": "Kyoto", "FirstCategory": "Viet Nam cuisine", "SecondCategory": "Cafe", "DinnerPrice": "￥3000～￥3999", "LunchPrice": "￥1000～￥1999", "TotalRating": "3.04", "DinnerRating": "3.04", "LunchRating": "3.02", "ReviewNum": "18", "Latitude": 34.988708733819102, "Longitude": 135.759459802978 }, "geometry": { "type": "Point", "coordinates": [ 135.759459802978, 34.988708733819102 ] } },
{ "type": "Feature", "properties": { "Name": "Taishuusakabatenuzumasatenjingawaten  ", "JapaneseName": "大衆酒場 天 太秦天神川店", "Station": "Uzumasa Tenjingawa", "FirstCategory": "Izakaya (Tavern)", "SecondCategory": "Yakitori (Grilled chicken)", "DinnerPrice": "￥3000～￥3999", "LunchPrice": "￥3000～￥3999", "TotalRating": "3.02", "DinnerRating": "3.02", "LunchRating": "NA", "ReviewNum": "1", "Latitude": 35.011391643671097, "Longitude": 135.71508661047201 }, "geometry": { "type": "Point", "coordinates": [ 135.715086610472014, 35.011391643671097 ] } },
{ "type": "Feature", "properties": { "Name": "hoterukeihankyoutogurandeokujoubiaga-den  ", "JapaneseName": "ホテル京阪京都 グランデ 屋上ビアガーデン", "Station": "Kyoto", "FirstCategory": "Beer garden", "SecondCategory": "Beer", "DinnerPrice": "￥3000～￥3999", "LunchPrice": "NA", "TotalRating": "3.05", "DinnerRating": "3.05", "LunchRating": "NA", "ReviewNum": "3", "Latitude": 34.983599583268699, "Longitude": 135.76090214064899 }, "geometry": { "type": "Point", "coordinates": [ 135.760902140648994, 34.983599583268699 ] } },
{ "type": "Feature", "properties": { "Name": "Gionramburu  ", "JapaneseName": "祇園らんぶる", "Station": "Gion Shijo", "FirstCategory": "Kyoto Cuisine", "SecondCategory": "Creative cuisine", "DinnerPrice": "￥5000～￥5999", "LunchPrice": "￥3000～￥3999", "TotalRating": "3.56", "DinnerRating": "3.56", "LunchRating": "3.06", "ReviewNum": "24", "Latitude": 35.0031163586616, "Longitude": 135.775318100373 }, "geometry": { "type": "Point", "coordinates": [ 135.775318100372999, 35.0031163586616 ] } },
{ "type": "Feature", "properties": { "Name": "Shisui  ", "JapaneseName": "紫水", "Station": "Sanjo", "FirstCategory": "Izakaya (Tavern)", "SecondCategory": "Kyoto Cuisine", "DinnerPrice": "￥3000～￥3999", "LunchPrice": "NA", "TotalRating": "3", "DinnerRating": "3", "LunchRating": "NA", "ReviewNum": "8", "Latitude": 35.009195902393998, "Longitude": 135.77052210765501 }, "geometry": { "type": "Point", "coordinates": [ 135.770522107655012, 35.009195902393998 ] } },
{ "type": "Feature", "properties": { "Name": "gyouzaba-anzukko  ", "JapaneseName": "GYOZA BAR 杏っ子", "Station": "Kyoto Shiyakusho Mae", "FirstCategory": "Dumplings", "SecondCategory": "Chinese", "DinnerPrice": "￥2000～￥2999", "LunchPrice": "NA", "TotalRating": "3.08", "DinnerRating": "3.09", "LunchRating": "NA", "ReviewNum": "25", "Latitude": 35.009221161154102, "Longitude": 135.76958801740199 }, "geometry": { "type": "Point", "coordinates": [ 135.769588017401986, 35.009221161154102 ] } },
{ "type": "Feature", "properties": { "Name": "jukuseiyakinikupondo  ", "JapaneseName": "熟成焼肉 听 四条大宮店", "Station": "Shijo Omiya", "FirstCategory": "Yakiniku (BBQ Beef)", "SecondCategory": "Horumon (BBQ Offel)", "DinnerPrice": "￥5000～￥5999", "LunchPrice": "￥1000～￥1999", "TotalRating": "3.28", "DinnerRating": "3.25", "LunchRating": "3.09", "ReviewNum": "26", "Latitude": 35.004549897859199, "Longitude": 135.74817389980399 }, "geometry": { "type": "Point", "coordinates": [ 135.748173899803987, 35.004549897859199 ] } },
{ "type": "Feature", "properties": { "Name": "KORAN  ", "JapaneseName": "香蘭", "Station": "Sai", "FirstCategory": "Korean cuisine", "SecondCategory": "Yakiniku (BBQ Beef)", "DinnerPrice": "￥4000～￥4999", "LunchPrice": "NA", "TotalRating": "3.12", "DinnerRating": "3.12", "LunchRating": "NA", "ReviewNum": "10", "Latitude": 35.003480331925999, "Longitude": 135.73466923727699 }, "geometry": { "type": "Point", "coordinates": [ 135.734669237276989, 35.003480331925999 ] } },
{ "type": "Feature", "properties": { "Name": "Kyoutonijoutosaka  ", "JapaneseName": "京都二条とさか", "Station": "Marutamachi", "FirstCategory": "Kappo (Traditional Japanese)", "SecondCategory": "Japanese food (other)", "DinnerPrice": "￥8000～￥9999", "LunchPrice": "￥2000～￥2999", "TotalRating": "3.53", "DinnerRating": "3.36", "LunchRating": "3.57", "ReviewNum": "13", "Latitude": 35.013590006641799, "Longitude": 135.76205038669599 }, "geometry": { "type": "Point", "coordinates": [ 135.762050386695989, 35.013590006641799 ] } },
{ "type": "Feature", "properties": { "Name": "YAMAMURA GYUUBEI  ", "JapaneseName": "近江牛Steak&Wine 山村牛兵衛 四条大宮店", "Station": "Omiya", "FirstCategory": "Izakaya (Tavern)", "SecondCategory": "Italian", "DinnerPrice": "￥3000～￥3999", "LunchPrice": "￥1000～￥1999", "TotalRating": "3.06", "DinnerRating": "3.04", "LunchRating": "3.06", "ReviewNum": "17", "Latitude": 35.005061524793099, "Longitude": 135.74903213830501 }, "geometry": { "type": "Point", "coordinates": [ 135.749032138305012, 35.005061524793099 ] } },
{ "type": "Feature", "properties": { "Name": "Poquito  ", "JapaneseName": "ポキート", "Station": "Kyoto Shiyakusho Mae", "FirstCategory": "Spain", "SecondCategory": "Dining bar", "DinnerPrice": "￥5000～￥5999", "LunchPrice": "NA", "TotalRating": "3.51", "DinnerRating": "3.51", "LunchRating": "NA", "ReviewNum": "83", "Latitude": 35.010340205331602, "Longitude": 135.76942797916999 }, "geometry": { "type": "Point", "coordinates": [ 135.76942797916999, 35.010340205331602 ] } },
{ "type": "Feature", "properties": { "Name": "Machiyashisenhoshitsukiyo  ", "JapaneseName": "町家四川 星月夜", "Station": "Omiya", "FirstCategory": "Sichuan Cuisine", "SecondCategory": "Shanghai Cuisine", "DinnerPrice": "￥8000～￥9999", "LunchPrice": "￥3000～￥3999", "TotalRating": "3.53", "DinnerRating": "3.27", "LunchRating": "3.56", "ReviewNum": "14", "Latitude": 35.0014650442168, "Longitude": 135.753565538506 }, "geometry": { "type": "Point", "coordinates": [ 135.753565538505995, 35.0014650442168 ] } },
{ "type": "Feature", "properties": { "Name": "Ameirobisutoroaruru  ", "JapaneseName": "アメイロビストロアルル", "Station": "Nishi Maizuru", "FirstCategory": "Italian", "SecondCategory": "Cafe", "DinnerPrice": "￥3000～￥3999", "LunchPrice": "￥1000～￥1999", "TotalRating": "3.05", "DinnerRating": "3.04", "LunchRating": "3.06", "ReviewNum": "8", "Latitude": 35.453134595426299, "Longitude": 135.32901805699601 }, "geometry": { "type": "Point", "coordinates": [ 135.329018056996006, 35.453134595426299 ] } },
{ "type": "Feature", "properties": { "Name": "LODGE  ", "JapaneseName": "北海道ステーキハウス LODGE", "Station": "Kyoto Shiyakusho Mae", "FirstCategory": "Steak", "SecondCategory": "Izakaya (Tavern)", "DinnerPrice": "￥4000～￥4999", "LunchPrice": "￥1000～￥1999", "TotalRating": "3.06", "DinnerRating": "3.06", "LunchRating": "3", "ReviewNum": "4", "Latitude": 35.009795529584103, "Longitude": 135.76875333805501 }, "geometry": { "type": "Point", "coordinates": [ 135.768753338055006, 35.009795529584103 ] } },
{ "type": "Feature", "properties": { "Name": "Yosuke YAMAJI  ", "JapaneseName": "山地陽介", "Station": "Gion Shijo", "FirstCategory": "French", "SecondCategory": "Modern French", "DinnerPrice": "￥20000～￥29999", "LunchPrice": "￥8000～￥9999", "TotalRating": "4.02", "DinnerRating": "3.68", "LunchRating": "3.75", "ReviewNum": "44", "Latitude": 35.002708075140703, "Longitude": 135.77566975663299 }, "geometry": { "type": "Point", "coordinates": [ 135.775669756632993, 35.002708075140703 ] } },
{ "type": "Feature", "properties": { "Name": "Feliz-Lana  ", "JapaneseName": "フェリスラナ", "Station": "Karasuma", "FirstCategory": "Italian", "SecondCategory": "Bar", "DinnerPrice": "￥3000～￥3999", "LunchPrice": "￥1000～￥1999", "TotalRating": "3.2", "DinnerRating": "3.2", "LunchRating": "3.06", "ReviewNum": "23", "Latitude": 35.002338443423703, "Longitude": 135.76268501869899 }, "geometry": { "type": "Point", "coordinates": [ 135.762685018698988, 35.002338443423703 ] } },
{ "type": "Feature", "properties": { "Name": "Wakanoshizuku  ", "JapaneseName": "和花のしずく 三条木屋町店", "Station": "Sanjo", "FirstCategory": "Izakaya (Tavern)", "SecondCategory": "Chanko Nabe (Sumo Wrestlers Hot Pot)", "DinnerPrice": "￥3000～￥3999", "LunchPrice": "NA", "TotalRating": "3.02", "DinnerRating": "3.02", "LunchRating": "NA", "ReviewNum": "4", "Latitude": 35.009097018968198, "Longitude": 135.77022935874299 }, "geometry": { "type": "Point", "coordinates": [ 135.770229358742995, 35.009097018968198 ] } },
{ "type": "Feature", "properties": { "Name": "fujiyakyoushoku  ", "JapaneseName": "Fuji屋 京色", "Station": "Kyoto Shiyakusho Mae", "FirstCategory": "Izakaya (Tavern)", "SecondCategory": "Japanese food (other)", "DinnerPrice": "￥5000～￥5999", "LunchPrice": "￥4000～￥4999", "TotalRating": "3.04", "DinnerRating": "3.04", "LunchRating": "NA", "ReviewNum": "8", "Latitude": 35.0135175544319, "Longitude": 135.764342699656 }, "geometry": { "type": "Point", "coordinates": [ 135.764342699655998, 35.0135175544319 ] } },
{ "type": "Feature", "properties": { "Name": "Teramachiyoshikura  ", "JapaneseName": "寺町よしくら", "Station": "Demachiyanagi", "FirstCategory": "Kaiseki (Traditional Japanese)", "SecondCategory": "Kyoto Cuisine", "DinnerPrice": "￥5000～￥5999", "LunchPrice": "￥1000～￥1999", "TotalRating": "3.16", "DinnerRating": "3.13", "LunchRating": "3.09", "ReviewNum": "33", "Latitude": 35.0287626378569, "Longitude": 135.76766788059601 }, "geometry": { "type": "Point", "coordinates": [ 135.767667880596008, 35.0287626378569 ] } },
{ "type": "Feature", "properties": { "Name": "sakanaryouritosakeshinsengumi  ", "JapaneseName": "魚料理と酒 新鮮具味", "Station": "Fushimi", "FirstCategory": "Izakaya (Tavern)", "SecondCategory": "Seafood", "DinnerPrice": "￥6000～￥7999", "LunchPrice": "￥2000～￥2999", "TotalRating": "3.28", "DinnerRating": "3.28", "LunchRating": "NA", "ReviewNum": "38", "Latitude": 34.940281476615901, "Longitude": 135.74716305390101 }, "geometry": { "type": "Point", "coordinates": [ 135.747163053901005, 34.940281476615901 ] } },
{ "type": "Feature", "properties": { "Name": "bisutorowaraku  ", "JapaneseName": "Bistro WARAKU 四条柳馬場店", "Station": "Karasuma", "FirstCategory": "Bistro", "SecondCategory": "Bar", "DinnerPrice": "￥4000～￥4999", "LunchPrice": "￥1000～￥1999", "TotalRating": "3.2", "DinnerRating": "3.14", "LunchRating": "3.15", "ReviewNum": "37", "Latitude": 35.0044229668434, "Longitude": 135.764068141189 }, "geometry": { "type": "Point", "coordinates": [ 135.764068141189, 35.0044229668434 ] } },
{ "type": "Feature", "properties": { "Name": "Uroko  ", "JapaneseName": "鱗", "Station": "Kawaramachi", "FirstCategory": "Izakaya (Tavern)", "SecondCategory": "Japanese food (other)", "DinnerPrice": "￥3000～￥3999", "LunchPrice": "NA", "TotalRating": "3.07", "DinnerRating": "3.07", "LunchRating": "NA", "ReviewNum": "18", "Latitude": 35.004454182840902, "Longitude": 135.770264014074 }, "geometry": { "type": "Point", "coordinates": [ 135.770264014074002, 35.004454182840902 ] } },
{ "type": "Feature", "properties": { "Name": "Ipponyari  ", "JapaneseName": "一本槍", "Station": "Fujinomori", "FirstCategory": "Fugu (Blowfish)", "SecondCategory": "Kappo (Traditional Japanese)", "DinnerPrice": "￥8000～￥9999", "LunchPrice": "NA", "TotalRating": "3.08", "DinnerRating": "3.09", "LunchRating": "NA", "ReviewNum": "5", "Latitude": 34.9574921438766, "Longitude": 135.763530902143 }, "geometry": { "type": "Point", "coordinates": [ 135.763530902143003, 34.9574921438766 ] } },
{ "type": "Feature", "properties": { "Name": "Higashinotouinsou  ", "JapaneseName": "東洞院SOU", "Station": "Karasuma Oike", "FirstCategory": "Kappo (Traditional Japanese)", "SecondCategory": "Japanese food (other)", "DinnerPrice": "￥4000～￥4999", "LunchPrice": "￥1000～￥1999", "TotalRating": "3.15", "DinnerRating": "3.15", "LunchRating": "3.06", "ReviewNum": "6", "Latitude": 35.007494251764101, "Longitude": 135.761020197357 }, "geometry": { "type": "Point", "coordinates": [ 135.761020197356999, 35.007494251764101 ] } },
{ "type": "Feature", "properties": { "Name": "hokkorisakabanagomiya  ", "JapaneseName": "ほっこり酒場なごみ家", "Station": "Shijo Omiya", "FirstCategory": "Izakaya (Tavern)", "SecondCategory": "Yakitori (Grilled chicken)", "DinnerPrice": "￥3000～￥3999", "LunchPrice": "NA", "TotalRating": "3.06", "DinnerRating": "3.06", "LunchRating": "NA", "ReviewNum": "6", "Latitude": 35.0061571694362, "Longitude": 135.74493881669801 }, "geometry": { "type": "Point", "coordinates": [ 135.74493881669801, 35.0061571694362 ] } },
{ "type": "Feature", "properties": { "Name": "teppandainingugionshou  ", "JapaneseName": "鉄板Dining祇園 翔 縄手店", "Station": "Gion Shijo", "FirstCategory": "Izakaya (Tavern)", "SecondCategory": "Teppanyaki", "DinnerPrice": "￥2000～￥2999", "LunchPrice": "NA", "TotalRating": "3.02", "DinnerRating": "3.02", "LunchRating": "NA", "ReviewNum": "1", "Latitude": 35.004028996758301, "Longitude": 135.77290992501901 }, "geometry": { "type": "Point", "coordinates": [ 135.772909925019007, 35.004028996758301 ] } },
{ "type": "Feature", "properties": { "Name": "Charcoal  ", "JapaneseName": "チャコール", "Station": "Shijo", "FirstCategory": "Italian", "SecondCategory": "Bar", "DinnerPrice": "￥3000～￥3999", "LunchPrice": "NA", "TotalRating": "3.53", "DinnerRating": "3.53", "LunchRating": "NA", "ReviewNum": "19", "Latitude": 35.004065919494202, "Longitude": 135.75599049514199 }, "geometry": { "type": "Point", "coordinates": [ 135.755990495141987, 35.004065919494202 ] } },
{ "type": "Feature", "properties": { "Name": "rakuenzakayaannachuraru  ", "JapaneseName": "楽園酒屋 アンナチュラル", "Station": "Demachiyanagi", "FirstCategory": "Izakaya (Tavern)", "SecondCategory": "Dining bar", "DinnerPrice": "￥2000～￥2999", "LunchPrice": "NA", "TotalRating": "3", "DinnerRating": "3", "LunchRating": "NA", "ReviewNum": "2", "Latitude": 35.029520546032003, "Longitude": 135.77916156547701 }, "geometry": { "type": "Point", "coordinates": [ 135.779161565477011, 35.029520546032003 ] } },
{ "type": "Feature", "properties": { "Name": "Gionemon  ", "JapaneseName": "祇園えもん", "Station": "Higashiyama", "FirstCategory": "Sushi", "SecondCategory": "Kappo (Traditional Japanese)", "DinnerPrice": "￥6000～￥7999", "LunchPrice": "￥1000～￥1999", "TotalRating": "3.48", "DinnerRating": "3.39", "LunchRating": "3.23", "ReviewNum": "17", "Latitude": 35.007068204841602, "Longitude": 135.77798880773199 }, "geometry": { "type": "Point", "coordinates": [ 135.777988807731987, 35.007068204841602 ] } },
{ "type": "Feature", "properties": { "Name": "Momojirou  ", "JapaneseName": "ももじろう JR山科駅前店", "Station": "Keihan Yamashina", "FirstCategory": "Izakaya (Tavern)", "SecondCategory": "Seafood", "DinnerPrice": "￥3000～￥3999", "LunchPrice": "NA", "TotalRating": "3.08", "DinnerRating": "3.08", "LunchRating": "NA", "ReviewNum": "14", "Latitude": 34.991885242679402, "Longitude": 135.817584829449 }, "geometry": { "type": "Point", "coordinates": [ 135.817584829449004, 34.991885242679402 ] } },
{ "type": "Feature", "properties": { "Name": "Kizakurajirokutei  ", "JapaneseName": "黄桜 治六亭", "Station": "Sanjo", "FirstCategory": "Izakaya (Tavern)", "SecondCategory": "Kyoto Cuisine", "DinnerPrice": "￥3000～￥3999", "LunchPrice": "NA", "TotalRating": "3.2", "DinnerRating": "3.2", "LunchRating": "NA", "ReviewNum": "15", "Latitude": 35.008304055584198, "Longitude": 135.770650471388 }, "geometry": { "type": "Point", "coordinates": [ 135.770650471387995, 35.008304055584198 ] } },
{ "type": "Feature", "properties": { "Name": "torisemmontenyamadori  ", "JapaneseName": "鶏専門店山鶏", "Station": "Kyoto", "FirstCategory": "Yakitori (Grilled chicken)", "SecondCategory": "Sukiyaki", "DinnerPrice": "￥3000～￥3999", "LunchPrice": "NA", "TotalRating": "3.38", "DinnerRating": "3.38", "LunchRating": "NA", "ReviewNum": "14", "Latitude": 34.989374485026602, "Longitude": 135.758834824231 }, "geometry": { "type": "Point", "coordinates": [ 135.758834824231002, 34.989374485026602 ] } },
{ "type": "Feature", "properties": { "Name": "satsumachirandorikuroyakibeppinya  ", "JapaneseName": "さつま知覧どり 黒焼き べっぴんや", "Station": "Karasuma", "FirstCategory": "Izakaya (Tavern)", "SecondCategory": "Fowl", "DinnerPrice": "￥3000～￥3999", "LunchPrice": "NA", "TotalRating": "3.48", "DinnerRating": "3.46", "LunchRating": "3.08", "ReviewNum": "39", "Latitude": 35.0024498377811, "Longitude": 135.76368020869799 }, "geometry": { "type": "Point", "coordinates": [ 135.763680208697991, 35.0024498377811 ] } },
{ "type": "Feature", "properties": { "Name": "zensekikoshitsuizakayasakurazaka  ", "JapaneseName": "全席個室居酒屋 桜坂 河原町店", "Station": "Sanjo", "FirstCategory": "Izakaya (Tavern)", "SecondCategory": "Seafood", "DinnerPrice": "￥2000～￥2999", "LunchPrice": "NA", "TotalRating": "3", "DinnerRating": "3", "LunchRating": "NA", "ReviewNum": "4", "Latitude": 35.007643458050801, "Longitude": 135.77002587873599 }, "geometry": { "type": "Point", "coordinates": [ 135.770025878735993, 35.007643458050801 ] } },
{ "type": "Feature", "properties": { "Name": "Chiritorinabeiyama  ", "JapaneseName": "ちりとり鍋 伊山", "Station": "Kitano Hakubaicho", "FirstCategory": "Chiritori nabe (tripe)", "SecondCategory": "Korean cuisine", "DinnerPrice": "￥4000～￥4999", "LunchPrice": "NA", "TotalRating": "3.52", "DinnerRating": "3.52", "LunchRating": "NA", "ReviewNum": "24", "Latitude": 35.026690887594697, "Longitude": 135.73368047295901 }, "geometry": { "type": "Point", "coordinates": [ 135.733680472959009, 35.026690887594697 ] } },
{ "type": "Feature", "properties": { "Name": "Mayonakashokudouchoujuugigarokkaku  ", "JapaneseName": "真夜中食堂 鳥獣戯画 六角", "Station": "Karasuma Oike", "FirstCategory": "Izakaya (Tavern)", "SecondCategory": "Fowl", "DinnerPrice": "￥2000～￥2999", "LunchPrice": "NA", "TotalRating": "3.06", "DinnerRating": "3.06", "LunchRating": "NA", "ReviewNum": "3", "Latitude": 35.007716353410899, "Longitude": 135.755477314134 }, "geometry": { "type": "Point", "coordinates": [ 135.755477314133998, 35.007716353410899 ] } },
{ "type": "Feature", "properties": { "Name": "Bankettonishiki  ", "JapaneseName": "ばんけっと Nishiki.", "Station": "Karasuma", "FirstCategory": "Japanese food (other)", "SecondCategory": "Izakaya (Tavern)", "DinnerPrice": "￥4000～￥4999", "LunchPrice": "NA", "TotalRating": "3.15", "DinnerRating": "3.15", "LunchRating": "NA", "ReviewNum": "7", "Latitude": 35.005139337869601, "Longitude": 135.76053838036401 }, "geometry": { "type": "Point", "coordinates": [ 135.760538380364011, 35.005139337869601 ] } },
{ "type": "Feature", "properties": { "Name": "Roppakuyakado  ", "JapaneseName": "Roppakuya KADO", "Station": "Karasuma", "FirstCategory": "Izakaya (Tavern)", "SecondCategory": "Wine bar", "DinnerPrice": "￥3000～￥3999", "LunchPrice": "NA", "TotalRating": "3.06", "DinnerRating": "3.06", "LunchRating": "NA", "ReviewNum": "7", "Latitude": 35.004468959026703, "Longitude": 135.757541181135 }, "geometry": { "type": "Point", "coordinates": [ 135.757541181134997, 35.004468959026703 ] } },
{ "type": "Feature", "properties": { "Name": "Parinijuuikku  ", "JapaneseName": "パリ21区", "Station": "Kawaramachi", "FirstCategory": "Steak", "SecondCategory": "Beer", "DinnerPrice": "￥2000～￥2999", "LunchPrice": "￥1000～￥1999", "TotalRating": "3.15", "DinnerRating": "3.06", "LunchRating": "3.3", "ReviewNum": "45", "Latitude": 35.005173208562901, "Longitude": 135.76659789655099 }, "geometry": { "type": "Point", "coordinates": [ 135.766597896550991, 35.005173208562901 ] } },
{ "type": "Feature", "properties": { "Name": "ajidokorosamon  ", "JapaneseName": "味どころ 佐門", "Station": "Sai", "FirstCategory": "Izakaya (Tavern)", "SecondCategory": "Okinawan Cuisine", "DinnerPrice": "￥3000～￥3999", "LunchPrice": " ～￥999", "TotalRating": "3.05", "DinnerRating": "3.04", "LunchRating": "3.03", "ReviewNum": "2", "Latitude": 35.0039066692894, "Longitude": 135.73433007914801 }, "geometry": { "type": "Point", "coordinates": [ 135.734330079148009, 35.0039066692894 ] } },
{ "type": "Feature", "properties": { "Name": "Ajidokoroterasaki  ", "JapaneseName": "味処てらさき", "Station": "Kyoto", "FirstCategory": "Kaiseki (Traditional Japanese)", "SecondCategory": "Seafood", "DinnerPrice": "￥8000～￥9999", "LunchPrice": "NA", "TotalRating": "3.52", "DinnerRating": "3.52", "LunchRating": "NA", "ReviewNum": "8", "Latitude": 34.988443606920498, "Longitude": 135.75057138670101 }, "geometry": { "type": "Point", "coordinates": [ 135.750571386701012, 34.988443606920498 ] } },
{ "type": "Feature", "properties": { "Name": "STRADA  ", "JapaneseName": "リストランテ ストラーダ", "Station": "Kyoto Shiyakusho Mae", "FirstCategory": "Italian", "SecondCategory": "NA", "DinnerPrice": "￥6000～￥7999", "LunchPrice": "￥2000～￥2999", "TotalRating": "3", "DinnerRating": "3.02", "LunchRating": "3", "ReviewNum": "18", "Latitude": 35.011170026710801, "Longitude": 135.764283368223 }, "geometry": { "type": "Point", "coordinates": [ 135.764283368223005, 35.011170026710801 ] } },
{ "type": "Feature", "properties": { "Name": "Nonkitei  ", "JapaneseName": "呑寄亭", "Station": "Gion Shijo", "FirstCategory": "Kappo (Traditional Japanese)", "SecondCategory": "Creative cuisine", "DinnerPrice": "￥8000～￥9999", "LunchPrice": "NA", "TotalRating": "3.47", "DinnerRating": "3.47", "LunchRating": "NA", "ReviewNum": "20", "Latitude": 35.005610543324998, "Longitude": 135.77571878559201 }, "geometry": { "type": "Point", "coordinates": [ 135.775718785592005, 35.005610543324998 ] } },
{ "type": "Feature", "properties": { "Name": "kyouryourikaji  ", "JapaneseName": "京料理 かじ", "Station": "Marutamachi", "FirstCategory": "Kyoto Cuisine", "SecondCategory": "Kaiseki (Traditional Japanese)", "DinnerPrice": "￥8000～￥9999", "LunchPrice": "￥5000～￥5999", "TotalRating": "3.56", "DinnerRating": "3.54", "LunchRating": "3.51", "ReviewNum": "67", "Latitude": 35.017233929003702, "Longitude": 135.754474736969 }, "geometry": { "type": "Point", "coordinates": [ 135.754474736969001, 35.017233929003702 ] } },
{ "type": "Feature", "properties": { "Name": "nikugaumaikafenikkusutokku  ", "JapaneseName": "肉が旨いカフェ NICK STOCK 京都リサーチパーク店", "Station": "Tambaguchi", "FirstCategory": "Cafe", "SecondCategory": "Steak", "DinnerPrice": "￥2000～￥2999", "LunchPrice": "￥1000～￥1999", "TotalRating": "3.19", "DinnerRating": "3.09", "LunchRating": "3.14", "ReviewNum": "41", "Latitude": 34.995541771979397, "Longitude": 135.73669499009901 }, "geometry": { "type": "Point", "coordinates": [ 135.736694990099011, 34.995541771979397 ] } },
{ "type": "Feature", "properties": { "Name": "momojirouichiba  ", "JapaneseName": "ももじろう市場 京福北野白梅町駅前店", "Station": "Kitano Hakubaicho", "FirstCategory": "Izakaya (Tavern)", "SecondCategory": "Seafood", "DinnerPrice": "￥3000～￥3999", "LunchPrice": "NA", "TotalRating": "3.05", "DinnerRating": "3.05", "LunchRating": "NA", "ReviewNum": "3", "Latitude": 35.027171922544298, "Longitude": 135.732265846074 }, "geometry": { "type": "Point", "coordinates": [ 135.732265846074, 35.027171922544298 ] } },
{ "type": "Feature", "properties": { "Name": "Waraiya  ", "JapaneseName": "笑い屋", "Station": "Kawaramachi", "FirstCategory": "Izakaya (Tavern)", "SecondCategory": "Yakitori (Grilled chicken)", "DinnerPrice": "￥4000～￥4999", "LunchPrice": "NA", "TotalRating": "3.09", "DinnerRating": "3.1", "LunchRating": "NA", "ReviewNum": "27", "Latitude": 35.002811487694501, "Longitude": 135.76493564333799 }, "geometry": { "type": "Point", "coordinates": [ 135.764935643337992, 35.002811487694501 ] } },
{ "type": "Feature", "properties": { "Name": "Ryouma  ", "JapaneseName": "龍馬 三条烏丸", "Station": "Karasuma Oike", "FirstCategory": "Izakaya (Tavern)", "SecondCategory": "Seafood", "DinnerPrice": "￥3000～￥3999", "LunchPrice": "NA", "TotalRating": "3.03", "DinnerRating": "3.04", "LunchRating": "NA", "ReviewNum": "1", "Latitude": 35.008569966636401, "Longitude": 135.760825441782 }, "geometry": { "type": "Point", "coordinates": [ 135.760825441782004, 35.008569966636401 ] } },
{ "type": "Feature", "properties": { "Name": "Nihonryouriukihashi  ", "JapaneseName": "浮橋", "Station": "Kyoto", "FirstCategory": "Kaiseki (Traditional Japanese)", "SecondCategory": "Kyoto Cuisine", "DinnerPrice": "￥8000～￥9999", "LunchPrice": "￥3000～￥3999", "TotalRating": "3.53", "DinnerRating": "3.51", "LunchRating": "3.54", "ReviewNum": "42", "Latitude": 34.986078184152802, "Longitude": 135.759591579816 }, "geometry": { "type": "Point", "coordinates": [ 135.759591579816004, 34.986078184152802 ] } },
{ "type": "Feature", "properties": { "Name": "Sushiyoshino  ", "JapaneseName": "寿司吉乃 先斗町", "Station": "Sanjo", "FirstCategory": "Sushi", "SecondCategory": "Kappo (Traditional Japanese)", "DinnerPrice": "￥6000～￥7999", "LunchPrice": "￥2000～￥2999", "TotalRating": "3.06", "DinnerRating": "3.06", "LunchRating": "NA", "ReviewNum": "3", "Latitude": 35.008145744370502, "Longitude": 135.77094739846399 }, "geometry": { "type": "Point", "coordinates": [ 135.770947398463989, 35.008145744370502 ] } },
{ "type": "Feature", "properties": { "Name": "Tsuneo  ", "JapaneseName": "ツネオ", "Station": "Gion Shijo", "FirstCategory": "Kappo (Traditional Japanese)", "SecondCategory": "Wine bar", "DinnerPrice": "￥10000～￥14999", "LunchPrice": "NA", "TotalRating": "3.52", "DinnerRating": "3.52", "LunchRating": "NA", "ReviewNum": "8", "Latitude": 35.000280609851998, "Longitude": 135.77869517269301 }, "geometry": { "type": "Point", "coordinates": [ 135.778695172693006, 35.000280609851998 ] } },
{ "type": "Feature", "properties": { "Name": "KYOTO GATTEN  ", "JapaneseName": "酒と肉天ぷら 勝天", "Station": "Gion Shijo", "FirstCategory": "Tempura", "SecondCategory": "Sushi", "DinnerPrice": "￥3000～￥3999", "LunchPrice": "￥1000～￥1999", "TotalRating": "3.09", "DinnerRating": "3.06", "LunchRating": "3.18", "ReviewNum": "11", "Latitude": 35.004063402741302, "Longitude": 135.77091869991699 }, "geometry": { "type": "Point", "coordinates": [ 135.77091869991699, 35.004063402741302 ] } },
{ "type": "Feature", "properties": { "Name": "Figerasu  ", "JapaneseName": "フィゲラス", "Station": "Gion Shijo", "FirstCategory": "Spain", "SecondCategory": "Bar", "DinnerPrice": "￥5000～￥5999", "LunchPrice": "NA", "TotalRating": "3.06", "DinnerRating": "3.06", "LunchRating": "NA", "ReviewNum": "14", "Latitude": 35.004713367584202, "Longitude": 135.772886006607 }, "geometry": { "type": "Point", "coordinates": [ 135.772886006606996, 35.004713367584202 ] } },
{ "type": "Feature", "properties": { "Name": "LOTUS  ", "JapaneseName": "スモーク＆グリル ロータス", "Station": "Shijo", "FirstCategory": "Italian", "SecondCategory": "Izakaya (Tavern)", "DinnerPrice": "￥4000～￥4999", "LunchPrice": "NA", "TotalRating": "3.42", "DinnerRating": "3.42", "LunchRating": "NA", "ReviewNum": "30", "Latitude": 35.004263978031098, "Longitude": 135.757373982236 }, "geometry": { "type": "Point", "coordinates": [ 135.757373982236004, 35.004263978031098 ] } },
{ "type": "Feature", "properties": { "Name": "Saredokafe  ", "JapaneseName": "saredoかふぇ", "Station": "Kyoto", "FirstCategory": "Cafe", "SecondCategory": "Crepes", "DinnerPrice": "￥1000～￥1999", "LunchPrice": "￥1000～￥1999", "TotalRating": "3.11", "DinnerRating": "3", "LunchRating": "3.12", "ReviewNum": "21", "Latitude": 34.989066430759202, "Longitude": 135.75702221117299 }, "geometry": { "type": "Point", "coordinates": [ 135.757022211172995, 34.989066430759202 ] } },
{ "type": "Feature", "properties": { "Name": "Kushinobou  ", "JapaneseName": "串の坊 京都駅店", "Station": "Kyoto", "FirstCategory": "Kushi-age (Fried Skewer)", "SecondCategory": "NA", "DinnerPrice": "￥4000～￥4999", "LunchPrice": "￥1000～￥1999", "TotalRating": "3.06", "DinnerRating": "3.07", "LunchRating": "3", "ReviewNum": "22", "Latitude": 34.986079542859997, "Longitude": 135.75787200034301 }, "geometry": { "type": "Point", "coordinates": [ 135.757872000343013, 34.986079542859997 ] } },
{ "type": "Feature", "properties": { "Name": "Kaisendokoroichi  ", "JapaneseName": "海鮮処　一", "Station": "Karasuma", "FirstCategory": "Izakaya (Tavern)", "SecondCategory": "Seafood", "DinnerPrice": "￥4000～￥4999", "LunchPrice": "NA", "TotalRating": "3.08", "DinnerRating": "3.09", "LunchRating": "NA", "ReviewNum": "5", "Latitude": 35.007225445800401, "Longitude": 135.764121618828 }, "geometry": { "type": "Point", "coordinates": [ 135.764121618828, 35.007225445800401 ] } },
{ "type": "Feature", "properties": { "Name": "Kyuushuunecchuuya  ", "JapaneseName": "九州 熱中屋 四条大宮 LIVE", "Station": "Omiya", "FirstCategory": "Izakaya (Tavern)", "SecondCategory": "Dumplings", "DinnerPrice": "￥3000～￥3999", "LunchPrice": "NA", "TotalRating": "3.08", "DinnerRating": "3.09", "LunchRating": "3.04", "ReviewNum": "12", "Latitude": 35.004704337491603, "Longitude": 135.74884411481 }, "geometry": { "type": "Point", "coordinates": [ 135.748844114809998, 35.004704337491603 ] } },
{ "type": "Feature", "properties": { "Name": "Nosutarujia  ", "JapaneseName": "ノスタルジア", "Station": "Kyoto Shiyakusho Mae", "FirstCategory": "Dining bar", "SecondCategory": "Italian", "DinnerPrice": "￥3000～￥3999", "LunchPrice": "NA", "TotalRating": "3.04", "DinnerRating": "3.04", "LunchRating": "NA", "ReviewNum": "14", "Latitude": 35.0100432814247, "Longitude": 135.76878554619501 }, "geometry": { "type": "Point", "coordinates": [ 135.768785546195005, 35.0100432814247 ] } },
{ "type": "Feature", "properties": { "Name": "sakesakanatanagokoro  ", "JapaneseName": "酒・肴 タナゴコロ", "Station": "Gojo", "FirstCategory": "Izakaya (Tavern)", "SecondCategory": "Japanese food (other)", "DinnerPrice": "￥4000～￥4999", "LunchPrice": "NA", "TotalRating": "3.06", "DinnerRating": "3.06", "LunchRating": "NA", "ReviewNum": "9", "Latitude": 34.9977994824742, "Longitude": 135.76257079272301 }, "geometry": { "type": "Point", "coordinates": [ 135.762570792723011, 34.9977994824742 ] } },
{ "type": "Feature", "properties": { "Name": "mo-shondaina-  ", "JapaneseName": "MOTION DINER KYOTO", "Station": "Kyoto Shiyakusho Mae", "FirstCategory": "Cafe", "SecondCategory": "Burger", "DinnerPrice": "￥2000～￥2999", "LunchPrice": "￥1000～￥1999", "TotalRating": "3.12", "DinnerRating": "3.05", "LunchRating": "3.12", "ReviewNum": "19", "Latitude": 35.007990425228897, "Longitude": 135.76762823682699 }, "geometry": { "type": "Point", "coordinates": [ 135.767628236826994, 35.007990425228897 ] } },
{ "type": "Feature", "properties": { "Name": "Sumibikushiyakitsujiya  ", "JapaneseName": "つじや 四条御幸町店", "Station": "Kawaramachi", "FirstCategory": "Yakitori (Grilled chicken)", "SecondCategory": "Izakaya (Tavern)", "DinnerPrice": "￥3000～￥3999", "LunchPrice": "NA", "TotalRating": "3.05", "DinnerRating": "3.05", "LunchRating": "NA", "ReviewNum": "10", "Latitude": 35.002959273229301, "Longitude": 135.76628469116301 }, "geometry": { "type": "Point", "coordinates": [ 135.766284691163008, 35.002959273229301 ] } },
{ "type": "Feature", "properties": { "Name": "Tenshinchashitsu  ", "JapaneseName": "點心茶室 京都店", "Station": "Kyoto", "FirstCategory": "Shanghai Cuisine", "SecondCategory": "Cantonese Cuisine", "DinnerPrice": "￥3000～￥3999", "LunchPrice": "￥1000～￥1999", "TotalRating": "3.54", "DinnerRating": "3.51", "LunchRating": "3.52", "ReviewNum": "52", "Latitude": 34.985854003617298, "Longitude": 135.757424825642 }, "geometry": { "type": "Point", "coordinates": [ 135.757424825642005, 34.985854003617298 ] } },
{ "type": "Feature", "properties": { "Name": "Haiborubakyoutokarasumaichikyuuniisan  ", "JapaneseName": "ハイボールバー京都烏丸1923", "Station": "Karasuma", "FirstCategory": "Bar", "SecondCategory": "Bar", "DinnerPrice": "￥2000～￥2999", "LunchPrice": "￥2000～￥2999", "TotalRating": "3.22", "DinnerRating": "3.22", "LunchRating": "NA", "ReviewNum": "4", "Latitude": 35.004602854261897, "Longitude": 135.758724410036 }, "geometry": { "type": "Point", "coordinates": [ 135.758724410035995, 35.004602854261897 ] } },
{ "type": "Feature", "properties": { "Name": "Oumigyuuyakinikumeitokuya  ", "JapaneseName": "近江牛焼肉 銘特屋", "Station": "Jujo", "FirstCategory": "Yakiniku (BBQ Beef)", "SecondCategory": "NA", "DinnerPrice": "￥4000～￥4999", "LunchPrice": "NA", "TotalRating": "3", "DinnerRating": "3", "LunchRating": "3.04", "ReviewNum": "2", "Latitude": 34.969573518519397, "Longitude": 135.757181706528 }, "geometry": { "type": "Point", "coordinates": [ 135.757181706528002, 34.969573518519397 ] } },
{ "type": "Feature", "properties": { "Name": "Mukadeya  ", "JapaneseName": "百足屋 本店", "Station": "Karasuma", "FirstCategory": "Kyoto Cuisine", "SecondCategory": "Japanese food (other)", "DinnerPrice": "￥6000～￥7999", "LunchPrice": "￥3000～￥3999", "TotalRating": "3.07", "DinnerRating": "3", "LunchRating": "3.08", "ReviewNum": "21", "Latitude": 35.005659231153999, "Longitude": 135.75646865325899 }, "geometry": { "type": "Point", "coordinates": [ 135.756468653258992, 35.005659231153999 ] } },
{ "type": "Feature", "properties": { "Name": "Hanagokoro  ", "JapaneseName": "花ごころ", "Station": "Hanazono", "FirstCategory": "Kyoto Cuisine", "SecondCategory": "Shojin Cuisine (Buddhist Cuisine)", "DinnerPrice": "￥3000～￥3999", "LunchPrice": "￥1000～￥1999", "TotalRating": "3.08", "DinnerRating": "3.09", "LunchRating": "3.06", "ReviewNum": "11", "Latitude": 35.021104251266401, "Longitude": 135.721942974391 }, "geometry": { "type": "Point", "coordinates": [ 135.721942974390998, 35.021104251266401 ] } },
{ "type": "Feature", "properties": { "Name": "Rakuza  ", "JapaneseName": "楽坐 京都本店", "Station": "Kyoto", "FirstCategory": "Izakaya (Tavern)", "SecondCategory": "Seafood", "DinnerPrice": "￥4000～￥4999", "LunchPrice": "NA", "TotalRating": "3.22", "DinnerRating": "3.22", "LunchRating": "NA", "ReviewNum": "29", "Latitude": 34.988146543691997, "Longitude": 135.75785468439 }, "geometry": { "type": "Point", "coordinates": [ 135.757854684389997, 34.988146543691997 ] } },
{ "type": "Feature", "properties": { "Name": "Monakadou  ", "JapaneseName": "もなか堂", "Station": "Kawaramachi", "FirstCategory": "Izakaya (Tavern)", "SecondCategory": "Creative cuisine", "DinnerPrice": "￥3000～￥3999", "LunchPrice": "NA", "TotalRating": "3.07", "DinnerRating": "3.08", "LunchRating": "NA", "ReviewNum": "10", "Latitude": 35.004622288317897, "Longitude": 135.76991109462301 }, "geometry": { "type": "Point", "coordinates": [ 135.769911094623012, 35.004622288317897 ] } },
{ "type": "Feature", "properties": { "Name": "kyoutoayanokoujimangetsunohana  ", "JapaneseName": "京都綾小路 満月の花", "Station": "Karasuma", "FirstCategory": "Sweets", "SecondCategory": "Japanese food (other)", "DinnerPrice": "￥2000～￥2999", "LunchPrice": " ～￥999", "TotalRating": "3.26", "DinnerRating": "3.09", "LunchRating": "3.21", "ReviewNum": "26", "Latitude": 35.002561770112401, "Longitude": 135.763672148658 }, "geometry": { "type": "Point", "coordinates": [ 135.763672148658003, 35.002561770112401 ] } },
{ "type": "Feature", "properties": { "Name": "shunsaibaruiberiko  ", "JapaneseName": "旬彩バル イベリコ", "Station": "Sanjo", "FirstCategory": "Dining bar", "SecondCategory": "Creative cuisine", "DinnerPrice": "￥3000～￥3999", "LunchPrice": "NA", "TotalRating": "3.05", "DinnerRating": "3.05", "LunchRating": "NA", "ReviewNum": "4", "Latitude": 35.007595780349099, "Longitude": 135.76963947685201 }, "geometry": { "type": "Point", "coordinates": [ 135.769639476852007, 35.007595780349099 ] } },
{ "type": "Feature", "properties": { "Name": "Ikiikiudon  ", "JapaneseName": "いきいきうどん 京都店", "Station": "Karasuma Oike", "FirstCategory": "Udon", "SecondCategory": "Japanese food (other)", "DinnerPrice": " ～￥999", "LunchPrice": " ～￥999", "TotalRating": "3.18", "DinnerRating": "3.09", "LunchRating": "3.14", "ReviewNum": "47", "Latitude": 35.011210474614799, "Longitude": 135.758368024296 }, "geometry": { "type": "Point", "coordinates": [ 135.758368024296004, 35.011210474614799 ] } },
{ "type": "Feature", "properties": { "Name": "zasera-kyouto  ", "JapaneseName": "The Cellar KYOTO", "Station": "Kyoto Shiyakusho Mae", "FirstCategory": "Dining bar", "SecondCategory": "Kappo (Traditional Japanese)", "DinnerPrice": "￥6000～￥7999", "LunchPrice": "NA", "TotalRating": "3.05", "DinnerRating": "3.05", "LunchRating": "NA", "ReviewNum": "2", "Latitude": 35.0093689200271, "Longitude": 135.769410525339 }, "geometry": { "type": "Point", "coordinates": [ 135.769410525338998, 35.0093689200271 ] } },
{ "type": "Feature", "properties": { "Name": "Daikokuebisu  ", "JapaneseName": "大黒戎", "Station": "Saiin", "FirstCategory": "Yakiniku (BBQ Beef)", "SecondCategory": "Korean cuisine", "DinnerPrice": "￥4000～￥4999", "LunchPrice": "NA", "TotalRating": "3.06", "DinnerRating": "3.06", "LunchRating": "NA", "ReviewNum": "15", "Latitude": 35.003384441969501, "Longitude": 135.73084039301 }, "geometry": { "type": "Point", "coordinates": [ 135.730840393009998, 35.003384441969501 ] } },
{ "type": "Feature", "properties": { "Name": "kaitoshirowainnobarukakimaru  ", "JapaneseName": "貝と白ワインのバル KAKIMARU 七条店", "Station": "Kyoto", "FirstCategory": "Bar", "SecondCategory": "Italian", "DinnerPrice": "￥3000～￥3999", "LunchPrice": "NA", "TotalRating": "3", "DinnerRating": "3", "LunchRating": "NA", "ReviewNum": "8", "Latitude": 34.989385808323199, "Longitude": 135.755149018704 }, "geometry": { "type": "Point", "coordinates": [ 135.755149018704003, 34.989385808323199 ] } },
{ "type": "Feature", "properties": { "Name": "chisouyouga  ", "JapaneseName": "馳走 陽雅", "Station": "Gojo", "FirstCategory": "Kaiseki (Traditional Japanese)", "SecondCategory": "Kyoto Cuisine", "DinnerPrice": "￥10000～￥14999", "LunchPrice": "￥6000～￥7999", "TotalRating": "3.63", "DinnerRating": "3.61", "LunchRating": "3.51", "ReviewNum": "8", "Latitude": 34.994037048354301, "Longitude": 135.75920596762299 }, "geometry": { "type": "Point", "coordinates": [ 135.759205967622989, 34.994037048354301 ] } },
{ "type": "Feature", "properties": { "Name": "Kushiyamonogatari  ", "JapaneseName": "串家物語 京都ヨドバシ店", "Station": "Kyoto", "FirstCategory": "Kushi-age (Fried Skewer)", "SecondCategory": "Izakaya (Tavern)", "DinnerPrice": "￥2000～￥2999", "LunchPrice": "￥1000～￥1999", "TotalRating": "3", "DinnerRating": "3", "LunchRating": "3.01", "ReviewNum": "14", "Latitude": 34.988130737306903, "Longitude": 135.75930067613899 }, "geometry": { "type": "Point", "coordinates": [ 135.759300676138992, 34.988130737306903 ] } },
{ "type": "Feature", "properties": { "Name": "nihonshubarujinsuke  ", "JapaneseName": "日本酒バル JINSUKE", "Station": "Karasuma", "FirstCategory": "Izakaya (Tavern)", "SecondCategory": "Seafood", "DinnerPrice": "￥3000～￥3999", "LunchPrice": "NA", "TotalRating": "3.05", "DinnerRating": "3.05", "LunchRating": "NA", "ReviewNum": "8", "Latitude": 35.002611766884797, "Longitude": 135.763793525165 }, "geometry": { "type": "Point", "coordinates": [ 135.763793525164999, 35.002611766884797 ] } },
{ "type": "Feature", "properties": { "Name": "Hanatanuki  ", "JapaneseName": "花たぬき 御池店", "Station": "Nishioji Oike", "FirstCategory": "Izakaya (Tavern)", "SecondCategory": "Okonomiyaki", "DinnerPrice": "￥3000～￥3999", "LunchPrice": "NA", "TotalRating": "3.01", "DinnerRating": "3.01", "LunchRating": "NA", "ReviewNum": "11", "Latitude": 35.011192518789002, "Longitude": 135.732162145963 }, "geometry": { "type": "Point", "coordinates": [ 135.732162145963002, 35.011192518789002 ] } },
{ "type": "Feature", "properties": { "Name": "izakayaba-shiba  ", "JapaneseName": "居酒屋BAR SIBA", "Station": "Gion Shijo", "FirstCategory": "Izakaya (Tavern)", "SecondCategory": "Japanese food (other)", "DinnerPrice": "￥3000～￥3999", "LunchPrice": "NA", "TotalRating": "3.03", "DinnerRating": "3.03", "LunchRating": "NA", "ReviewNum": "2", "Latitude": 35.004849737447501, "Longitude": 135.772631854769 }, "geometry": { "type": "Point", "coordinates": [ 135.772631854769003, 35.004849737447501 ] } },
{ "type": "Feature", "properties": { "Name": "Satsumagokamon  ", "JapaneseName": "薩摩ごかもん 京都四条烏丸本店", "Station": "Karasuma", "FirstCategory": "Izakaya (Tavern)", "SecondCategory": "Sukiyaki", "DinnerPrice": "￥3000～￥3999", "LunchPrice": " ～￥999", "TotalRating": "3.07", "DinnerRating": "3.09", "LunchRating": "3", "ReviewNum": "27", "Latitude": 35.004072379729102, "Longitude": 135.76011459678301 }, "geometry": { "type": "Point", "coordinates": [ 135.760114596783012, 35.004072379729102 ] } },
{ "type": "Feature", "properties": { "Name": "Kyoutoyamanashiyakitorikanazawa  ", "JapaneseName": "京都山科 焼鳥 かなざわ", "Station": "Keihan Yamashina", "FirstCategory": "Izakaya (Tavern)", "SecondCategory": "Yakitori (Grilled chicken)", "DinnerPrice": "￥3000～￥3999", "LunchPrice": "NA", "TotalRating": "3.06", "DinnerRating": "3.06", "LunchRating": "NA", "ReviewNum": "36", "Latitude": 34.991331423633497, "Longitude": 135.818192026742 }, "geometry": { "type": "Point", "coordinates": [ 135.818192026741997, 34.991331423633497 ] } },
{ "type": "Feature", "properties": { "Name": "Himiko  ", "JapaneseName": "卑弥呼 舞鶴", "Station": "Higashi Maizuru", "FirstCategory": "Izakaya (Tavern)", "SecondCategory": "Seafood", "DinnerPrice": "￥4000～￥4999", "LunchPrice": "￥1000～￥1999", "TotalRating": "3.12", "DinnerRating": "3.08", "LunchRating": "3.21", "ReviewNum": "29", "Latitude": 35.475659448994598, "Longitude": 135.394954321689 }, "geometry": { "type": "Point", "coordinates": [ 135.394954321688999, 35.475659448994598 ] } },
{ "type": "Feature", "properties": { "Name": "koshitsuichiammasamunebettei  ", "JapaneseName": "個室 一庵正宗 別邸 京都木屋町店 ", "Station": "Gion Shijo", "FirstCategory": "Izakaya (Tavern)", "SecondCategory": "Dining bar", "DinnerPrice": "￥2000～￥2999", "LunchPrice": "￥2000～￥2999", "TotalRating": "3.06", "DinnerRating": "3.06", "LunchRating": "NA", "ReviewNum": "2", "Latitude": 35.004805264870697, "Longitude": 135.77074895763499 }, "geometry": { "type": "Point", "coordinates": [ 135.770748957634993, 35.004805264870697 ] } },
{ "type": "Feature", "properties": { "Name": "CHULETA  ", "JapaneseName": "チュレタ", "Station": "Gion Shijo", "FirstCategory": "Spain", "SecondCategory": "Bar", "DinnerPrice": "￥5000～￥5999", "LunchPrice": "￥1000～￥1999", "TotalRating": "3.58", "DinnerRating": "3.58", "LunchRating": "3.06", "ReviewNum": "24", "Latitude": 35.004132038915003, "Longitude": 135.77277382046699 }, "geometry": { "type": "Point", "coordinates": [ 135.772773820466995, 35.004132038915003 ] } },
{ "type": "Feature", "properties": { "Name": "GRILL&PUB The NICK STOCK  ", "JapaneseName": "GRILL&PUB The NICK STOCK 三条河原町店", "Station": "Sanjo", "FirstCategory": "Steak", "SecondCategory": "Bar", "DinnerPrice": "￥2000～￥2999", "LunchPrice": "￥1000～￥1999", "TotalRating": "3", "DinnerRating": "3.06", "LunchRating": "3", "ReviewNum": "19", "Latitude": 35.008732885782003, "Longitude": 135.76991634594901 }, "geometry": { "type": "Point", "coordinates": [ 135.769916345949014, 35.008732885782003 ] } },
{ "type": "Feature", "properties": { "Name": "Choushuuryourikyoumon  ", "JapaneseName": "町衆料理 京もん", "Station": "Sanjo", "FirstCategory": "Kyoto Cuisine", "SecondCategory": "Kaiseki (Traditional Japanese)", "DinnerPrice": "￥5000～￥5999", "LunchPrice": "￥2000～￥2999", "TotalRating": "3.07", "DinnerRating": "3.08", "LunchRating": "NA", "ReviewNum": "34", "Latitude": 35.0092956151734, "Longitude": 135.77059209725201 }, "geometry": { "type": "Point", "coordinates": [ 135.770592097252006, 35.0092956151734 ] } },
{ "type": "Feature", "properties": { "Name": "Brochette  ", "JapaneseName": "ブロシェット", "Station": "Karasuma Oike", "FirstCategory": "Western (Others)", "SecondCategory": "French", "DinnerPrice": "￥3000～￥3999", "LunchPrice": "￥1000～￥1999", "TotalRating": "3.55", "DinnerRating": "3.54", "LunchRating": "3.51", "ReviewNum": "44", "Latitude": 35.010390055425901, "Longitude": 135.761151164263 }, "geometry": { "type": "Point", "coordinates": [ 135.761151164262998, 35.010390055425901 ] } },
{ "type": "Feature", "properties": { "Name": "Ilifune  ", "JapaneseName": "ilifune", "Station": "Jingu Marutamachi", "FirstCategory": "Dining bar", "SecondCategory": "Italian", "DinnerPrice": "￥3000～￥3999", "LunchPrice": "NA", "TotalRating": "3.06", "DinnerRating": "3.06", "LunchRating": "NA", "ReviewNum": "1", "Latitude": 35.016788668749498, "Longitude": 135.76865413542799 }, "geometry": { "type": "Point", "coordinates": [ 135.768654135427994, 35.016788668749498 ] } },
{ "type": "Feature", "properties": { "Name": "Satsuki  ", "JapaneseName": "さつき", "Station": "Kyoto Shiyakusho Mae", "FirstCategory": "Kyoto Cuisine", "SecondCategory": "Kaiseki (Traditional Japanese)", "DinnerPrice": "￥10000～￥14999", "LunchPrice": "NA", "TotalRating": "3.51", "DinnerRating": "3.51", "LunchRating": "NA", "ReviewNum": "5", "Latitude": 35.011894784804198, "Longitude": 135.770775017945 }, "geometry": { "type": "Point", "coordinates": [ 135.770775017944999, 35.011894784804198 ] } },
{ "type": "Feature", "properties": { "Name": "Kaitoshirowainnobarukakimaru  ", "JapaneseName": "貝と白ワインのバル KAKIMARU 西院店", "Station": "Saiin", "FirstCategory": "Bar", "SecondCategory": "Izakaya (Tavern)", "DinnerPrice": "￥3000～￥3999", "LunchPrice": "NA", "TotalRating": "3.04", "DinnerRating": "3.04", "LunchRating": "NA", "ReviewNum": "3", "Latitude": 35.0023837266776, "Longitude": 135.73147038676399 }, "geometry": { "type": "Point", "coordinates": [ 135.731470386763988, 35.0023837266776 ] } },
{ "type": "Feature", "properties": { "Name": "Sandaimetorimero  ", "JapaneseName": "三代目 鳥メロ 四条烏丸店", "Station": "Shijo", "FirstCategory": "Izakaya (Tavern)", "SecondCategory": "Yakitori (Grilled chicken)", "DinnerPrice": "￥2000～￥2999", "LunchPrice": "NA", "TotalRating": "3", "DinnerRating": "3", "LunchRating": "NA", "ReviewNum": "2", "Latitude": 35.0039504023623, "Longitude": 135.75748287651899 }, "geometry": { "type": "Point", "coordinates": [ 135.757482876518992, 35.0039504023623 ] } },
{ "type": "Feature", "properties": { "Name": "Furenchibado  ", "JapaneseName": "フレンチバード", "Station": "Kyoto Shiyakusho Mae", "FirstCategory": "French", "SecondCategory": "Bistro", "DinnerPrice": "￥4000～￥4999", "LunchPrice": "￥1000～￥1999", "TotalRating": "3.06", "DinnerRating": "3.06", "LunchRating": "NA", "ReviewNum": "11", "Latitude": 35.013692274839698, "Longitude": 135.76530872249401 }, "geometry": { "type": "Point", "coordinates": [ 135.765308722494012, 35.013692274839698 ] } },